,Store_Name,Address,Timings,Latitude,Longitude,Phone_number
0,"Jio Store - Gandhi Chowk, Hinganghat","Jio Store, Mene Shop, Gandhi Chowk, Beside kanak jewellers, Hinganghta Dist:- Wardha - 442301",Mon-Sun 10:00 AM-10:00 PM,20.54,78.83,9082700428
1,"Reliance Digital - Saraf Complex, Wardha","Reliance Digital, Ground Floor & First Floor, Saraf Complex, Plot No. 2/6, Wanipura, Ambika Square, Main Bazar Road, Wardha 442001, Maharashtra",Mon-Sun 10:00 AM-10:00 PM,20.73897,78.601805,8459614650
2,"Jio Store - Arvi Naka , Wardha","Jio Store, Ground Floor, Gandhi Nagar, Near Shivarpan Heights, Arvi Naka, Wardha 442001, Maharashtra",Mon-Sun 10:00 AM-10:00 PM,20.754904,78.601534,9321004968
3,"Jio Store - Santaji Nagar Mane Road, Bhadravati","Jio Store, Shop No. 3 Santaji Nagar Mane Road Shite No. 131/3 Plot No. 13 Bhadravati 442902",Mon-Sun 10:00 AM-10:00 PM,20.11,79.11,9082706070
4,"Jio Store - Besa, Nagpur","Jio Store, Upper Ground Floor, No. R1 KH No 19/2, Siddhesh Sai Krupa Complex, K Sera Miniplex, Besa Pipla Road, Besa, Nagpur 440037, Maharashtra",Mon-Sun 10:00 AM-10:00 PM,21.086892,79.087356,9321004962
5,"Jio Store - Somalwada, Nagpur","Jio Store, Shop No 3, Plot No 1869, Laxmi Niwas, Kachore Corner, Somalwada Square, Wardha Road, Nagpur, 440015",Mon-Sun 10:00 AM-10:00 PM,21.0979299,79.0669507,9082712290
6,"Jio Store - Pratap Nagar, Ganesh Heights, Nagpur","Jio Store, Shop No 23, Ganesh Apartment, Kotwal Nagar Ring Road, Nagpur 440025",Mon-Sun 10:00 AM-10:00 PM,21.1127167,79.0627201,9082710919
7,"Jio Store - Hingana, Nagpur","Jio Store, Shop No GS 2, Ravi Apartement, 6, Barlingay Vaidya Layout, Hingna Road, Nagpur 440016",Mon-Sun 10:00 AM-10:00 PM,21.119848,79.0223577,9082704480
8,"Jio Store - Chordiya Complex, Wani","Jio Store, Shop No.1, Chordia Complex, Madina Masjit Road, Shivaji Chowk, Wani - 445304",Mon-Sun 10:00 AM-10:00 PM,20.06,78.94,9082703062
9,"Jio Store - Shewalkar Garden, Subhash Nagar, Nagpur","Jio Store, Shop No 46, Upper Ground Floor, Shewalkar Garden, S A Road, Nagpur, 440012",Mon-Sun 10:00 AM-10:00 PM,21.1214173,79.0531424,9082712282
10,"Jio Store - Hudkeshwar Road, Margi Nagar Square, Nagpur","Jio Store, GF Plot No 331 New Subedar Layout Near, Bank Of Mahashtra Hudkeshwar Road, Margi Nagar Square, Nagpur",Mon-Sun 10:00 AM-10:00 PM,21.111277,79.116057,9595157848
11,"Jio Store - AVN Tower, Manewada, Nagpur","Jio Store, Shop No 2,3, AVN Tower, Plot No 291, Jawahar Nagar, Manewada, Nagpur 440024",Mon-Sun 10:00 AM-10:00 PM,21.119073,79.10443111,9082709190
12,"Jio Store - Dharampet, Nagpur","Jio Store, Shukla Bhawan, Shop 1, Plot 3, H No 194, Near Batukbhai Jewellers, (W) High Court Road, Dharmpeth, Nagpur 440010",Mon-Sun 10:00 AM-10:00 PM,21.1384108,79.0604068,9082709443
13,"Reliance Digital - Dharampeth, Nagpur","Reliance Digital, Plot No. 275, Laxmi Bhavan Square, WHC Road, Dharampeth, Nagpur 440010, Maharashtra",Mon-Sun 11:00 AM-10:00 PM,21.1399,79.06035,7028080816
14,"Jio Store - Medical Square, Bhagwat Bhawan, Nagpur","Jio Store, Plot No. 197, Bhagat Bhavan, Uhtkhana Road, Medical Square, Nagpur 440009, Maharashtra",Mon-Sun 10:00 AM-10:00 PM,21.13243634,79.09863779,9082705674
15,"Reliance Digital - Trilium Mall, Nagpur","Reliance Digital, Trilium Mall, 504, Great Nag Road, Near Medical Square, Rambagh, Nagpur 440003, Maharashtra",Mon-Sun 11:00 AM-10:00 PM,21.1330051,79.096868,9226012432
16,"Resq Service Center - Nagpur, Nagpur","ResQ Service center, Task Solutions, Plot No. P 13, Mauje Wadi, Hingna Road, Near Toll Plaza, Nagpur 440028, Maharashtra",Mon-Sun 09:30 AM-09:30 PM,21.1479446,79.0040478,0
17,"Jio Store - Silver System, Dhantoli, Nagpur","Jio Store, Gs/1, Silver Palace, Opp Yeshwant Stadium, Dhantoli, Nagpur 440012",Mon-Sun 10:00 AM-10:00 PM,21.1385034,79.0811442,9082712073
18,"Jio Store - Kamdi Bhawan, Nandanvan, Nagpur","Jio Store, Plot No 502, Shop No 2, Kandi Bhawan, Near Jaiswal School, Nehru Nagar, Nandanvan Main Road, Nagpur 440009",Mon-Sun 10:00 AM-10:00 PM,21.141748,79.073147,9082705634
19,"Reliance Digital - Empress City Mall, Nagpur","Reliance Digital, First Floor, Empress City Mall, Near Gandhi Sagar Lake, Sir Benzonji Mehta Road, Nagpur 440018, Maharashtra",Mon-Sun 10:00 AM-10:00 PM,21.1478739,79.0926848,9922923412
20,"Jio Store - CA Road, Tulsi Apartment, Nagpur","Jio Store, Shop No 3, Tulsi Apartment, Central Avenue Road, Nagpur 440008",Mon-Sun 10:00 AM-10:00 PM,21.1487486,79.1191827,9372757955
21,"Digital Xpress Mini - Wardhaman Nagar, Nagpur","Reliance Digital Xpress Mini, Plot No 10, House No 1526/46, Shop No 2, Srinivas Apartment, Central Avenue Road, Wardhaman Nagar, Nagpur 440008",Mon-Sun 10:00 AM-10:00 PM,21.1482589,79.1310536,0
22,"Jio Store - Sadar, Nagpur","Jio Store, D 10 B, Anjum Complex, Sadar Bazar, Mangalwari, Nagpur 440001",Mon-Sun 10:00 AM-10:00 PM,21.164033,79.0806331,9082704022
23,"Jio Store - Pardi Naka, H b Town, Nagpur","Jio Store, Shop No U 11, HB Town, Bhandara Road, Pardi, Nagpur 440008",Mon-Sun 08:00 AM-04:00 PM,21.1508523,79.1511832,9372757889
24,"Jio Store - Kamal Chowk-relocation 7739, Nagpur","Jio Store, GF City S No 2278 H No 73 Shop No 3, Karam Sheel Heights Dr Ambedkar Rd, Indora Chowk Rd Kamal Chowk, NAGPUR",Mon-Sun 10:00 AM-10:00 PM,21.171314,79.10023,7709430345
25,"Jio Store - Jafar nagar, Nagpur","Jio Store, Plot No 100/A4, Beside Mother 1 Nursing Institute, Jafar Nagar, Nagpur 440013",Mon-Sun 08:00 AM-04:00 PM,21.1820901,79.0666891,9082704261
26,"Jio Store - Jaripatka, Hitesh Sankul, Nagpur","Jio Store, Shop No 4, Hitesh Sankul, Main Nara Road, Jaripatka, Nagpur 440014",Mon-Sun 10:00 AM-10:00 PM,21.1874899,79.0917256,9082704469
27,"Jio Store - KAMPTEE, Kamptee","Jio Store, House No409, Borkar Chowk, Main Road, Kamptee, 441001",Mon-Sun 10:00 AM-10:00 PM,21.21,79.19,9082703049
28,"Jio Store - Tukum, Nirman Nagar, Chandrapur","Jio Store, Warbhe Daily Needs,Shop No 20, Nirman Road, Near Biyani Petrol Pump, Tukum Road, Chandrapur 442401",Mon-Sun 10:00 AM-10:00 PM,19.9793712,79.2996802,9082705742
29,"Jio Store - Zanzari Complex , Chandrapur","Jio Store, Shop No 1,Zanzari Complex, ZP Road,Jatpura Square, Chandrapur 442401",Mon-Sun 10:00 AM-10:00 PM,19.9589721,79.2959357,9082706307
30,"Jio Store - Zaweri Complex, Ballarpur","Jio Store, Zaweri Complex Shop No. 2 Opp TQ Court Collery Road Ballarpur 442701",Mon-Sun 10:00 AM-10:00 PM,19.8570749,79.3459579,9082706078
31,"Resq Service Center - Yavatmal, Yavatmal","ResQ Service Center, Nilawar Mobile Shopee, Shop No.101, Nilawar Complex, Jai Hind Chowk, Yavatmal 445001, Maharashtra",Mon-Sun 09:30 AM-09:30 PM,20.395,78.134,0
32,"Reliance Digital - Dhamangaon, Yavatmal","Reliance Digital, Ground Floor & First Floor, Westend Mall, SBI Square, Civil Line, Opp. Essar Petrol Pump Pang, Dhamangaon Road, Yavatmal 445001, Maharashtra",Mon-Sun 10:00 AM-10:00 PM,20.3966,78.12922,9022166098
33,"Jio Store - Jaju Complex, Yavatmal","Jio Store, Jaju Complex, Shop no,3, Nr Kale Hospital Datta Chowk Yavatmal - 445001",Mon-Sun 10:00 AM-10:00 PM,20.38,78.13,9372757967
34,"Jio Store - Muslim Library Square, Bhandara","Jio Store, Muslim Library Square, Behind Padole Hospital, Opp. Nagar Parshid Complex Bhandara - 441904",Mon-Sun 10:00 AM-10:00 PM,21.16,79.65,9082703038
35,"Jio Store - Hameedpura, Adilabad","Jio Store, H.No: 4-4-75/2,Hameed pura,Near Netaji Chowk, Adilabad, Telangana 504001",Mon-Sun 10:00 AM-10:00 PM,19.67136581,78.53210746,9082708312
36,"Reliance Digital - Adilabad, Adilabad","Reliance Digital, 37/1, Dasnapur village, Mavala Mandal, Next to Thirumala Petrol Pump, Adilabad 504002, Telangana",Mon-Sun 10:00 AM-10:00 PM,19.65855,78.52394,6305805087
37,"Jio Store - Gandhi Nagar, Mahoba","Jio Store, Mr. Chandra shekhar Tiwari S/o Shri Babu lal Tiwari ,Kirat Sagar Road Mahoba , 210427",Mon-Sun 10:00 AM-10:00 PM,20.67595,77.798741,9082700878
38,"Jio Store - Balaji Refreshment, CAMP, Amravati","Jio Store, Shop No 17 19, Khandelwal Market, Chaprasipura Camp, Amravati 444602",Mon-Sun 10:00 AM-10:00 PM,20.9315615,77.7776122,9372757939
39,"Jio Store - Shantinagar, Amravati","Jio Store, Digital Xpress mini, Sadbhawana Market, Chaitanya Colony, Yashoda Nagar, Old By-Pass Road, Amravati 444606, Maharashtra",Mon-Sun 10:00 AM-10:00 PM,20.915128724,77.771764015,9082703802
40,"Resq Service Center - Amravati, Amravati","ResQ Service center, Suyog Enterprises, Opp. Dr Prafull Kadu Hospital, Rukhmani Nagar, Amravati 444607, Maharashtra",Mon-Sun 09:30 AM-09:30 PM,20.923322,77.7636254,0
41,"Jio Store - Raja Peth, Gulshan Plaza, Amravati","Jio Store, Shop No 8, Ground Floor, Gulshan Plaza, Badnera Road, Rajapeth, Amravati-444601",Mon-Sun 10:00 AM-10:00 PM,20.918537,77.7536159,9372757853
42,"Reliance Digital - Amravati Land Mark Mall, Amravati","Reliance Digital, Tapadiya City Centre, Badnera Road, Saturna, Amravati 444607, Maharashtra",Mon-Sun 11:00 AM-10:00 PM,20.9001438,77.7484105,9021056092
43,"Jio Store - Shegaon Naka, Venus Plaza, Amravati","Jio Store, Shop No 28, Ground Floor, Venus Plaza, Shegaon Naka, Amravati 444601",Mon-Sun 10:00 AM-10:00 PM,20.9514176,77.7616862,9082713393
44,"Jio Store - Parasai Road, Chhindwara","Jio Store, shop no.18,jiji bai complex,parasia road,satkar chowk,chindwara 466001",Mon-Sun 10:00 AM-10:00 PM,22.05836,78.93591,9993970780
45,"Jio Store - Desbandhu Ward, Gondia","Jio Store, Desbandhu Ward,durga chowk, Gondia",Mon-Sun 10:00 AM-10:00 PM,21.4595,80.1921,9082702101
46,"Jio Store - Mishra Complex G N Road, Seoni","Jio Store, 454775 Pithampur 480661",Mon-Sun 10:00 AM-10:00 PM,22.07872,79.54486,8815358844
47,"Jio Store - Turning Point, Achalpur","Jio Store, Turning Point Sheet No 23 Above Bank of Baroda Plot No.10/ 2 Achalpur 444806",Mon-Sun 10:00 AM-10:00 PM,21.28,77.51,9372757991
48,"Jio Store - Nirmal, Nirmal","Jio Store, House No 1-2-69/2 Ground floor Chinna Gate, Opposite Bus Depot Nirmal town, AdilabadDistrict Nirmal 400080",Mon-Sun 10:00 AM-10:00 PM,19.0926703,78.3463946,9082708313
49,"Jio Store - Civil Lines Link Road, Betul","Jio Store, Gurunanak Road,Infront of Bajaj Showroom,Civil Line, Betul,(M.P.) 460001",Mon-Sun 10:00 AM-10:00 PM,21.899258,77.901652,9082703187
50,"Jio Store - Jaistambh Road, Karanja","Jio Store, Satyam Nazul Sheet No 18 Plot No 26, Mouza Karanja Jaistambh Road, Karanja Taluka Karanja District Washim Karanja 444105",Mon-Sun 10:00 AM-10:00 PM,20.29,77.29,9082702019
51,"Jio Store - Main Road, Balaghat","Jio Store, Old punjab bank,opp. Bahubali-baghrecha complex,balaghat 481001",Mon-Sun 10:00 AM-10:00 PM,21.8144605,80.1927433,7000209202
52,"Jio Store - Sarni, SARNI","Jio Store, Shop 1 Near Hero Motor Corp At Ward No 3, Khasra No 61/31 Rakwa 0020 Hq.Bagdona",Mon-Sun 10:00 AM-10:00 PM,22.123725013,78.105737418,9082714502
53,"Jio Store - Shriram Sankul, Anjangaon","Jio Store, Shop No. 15 Shriram Sankul Near Bank of India ATM OPP.Akvira bank old bus stand Akot Road 444705",Mon-Sun 10:00 AM-10:00 PM,21.16,77.3,7020703201
54,"Resq Service Center - Mancherial, Mancherial","ResQ Service center, Royal Techno Services, Sy No. 364, Sri Sri Nagar, Sunnambattiwada, Mancherial 504208, Telangana",Mon-Sun 09:30 AM-09:30 PM,18.867446,79.457455,0
55,"Reliance Digital - Naspur, Mancherial","Reliance Digital, Ground & First Floor, Sy. No. 54/A1, Naspur Village, Mancherial 504208, Telangana",Mon-Sun 11:00 AM-10:00 PM,18.861454,79.464326,9866475349
56,"Jio Store - Yava Road, Jagtial","Jio Store, House No 3-6-196/1, Nizambad Road Opp.Bus Stand, Jagityal Karimnagar Dist, Jagtial",Mon-Sun 10:00 AM-10:00 PM,18.79012,78.914,9082714403
57,"Jio Store - Shivaji Chowk, Washim","Jio Store, Mandhane Building Sr.No /Sheet No 99 Plot No 478, 241 /267 Shivaji Chowk Ward No 19, Opp Girnar Complex Near Old Balaji Temple Dist Washim 444505",Mon-Sun 10:00 AM-10:00 PM,20.11,77.13,9082701516
58,"Jio Store - Lakshmi Nagar Store, Not assigned","Jio Store, H.N 18 5 188/A, Lakshmi Nagar, Godavari Khani, Karimnagar District Alaknanda Shopping Complex, Near Tara. Pin 505209",Mon-Sun 10:00 AM-10:00 PM,18.748165,79.5106716,9082704800
59,"Reliance Digital - JR Mall, Armoor","Reliance Digital, Ground & First Floor, No. 1-1-6 - 17, Sy. Nos. 401/69, 401/1 /416 /2, Bus Depot Area, Armoor 503224, Telangana",Mon-Sun 10:00 AM-10:00 PM,18.78821,78.29186,9100946569
60,"Jio Store - NH-16 Road Mamidipally, Armoor(Kotarmoor)","Jio Store, Shop/Unit/Sy No 99/AA G P No 4-71/B-9 (Part), NH-16 Road Mamidipally, Armoor Nizamabad District, Armur 503224",Mon-Sun 10:00 AM-10:00 PM,18.7854226,78.29431734,9082702028
61,"Jio Store - Tilak Road, Aksa Height, Akola","Jio Store, Aqsa Heights, Shop N. G 1, Opp Old Cotton Market, Tilak Road, Akola 444001",Mon-Sun 10:00 AM-10:00 PM,20.7130428,77.0223695,9175990909
62,"Jio Store - Jatharpeth Chowk, Akola","Jio Store, Shop SH 4,Swami Arcade Complex, Jatharpet Chowk, Akola 444005",Mon-Sun 10:00 AM-10:00 PM,20.7148952,77.0152891,9922796793
63,"Jio Store - Sai Gopal Complex, Akot","Jio Store, Ground Floor Sai Gopal Complex, Plot No 23 / 5 Sheet No 10, Near Bajaj Finance ST Station Road, Akot Taluka Akot District Akola, Akot, 444101",Mon-Sun 10:00 AM-10:00 PM,21.09,77.05,9082700861
64,"Jio Store - Soni House, Hingoli","Jio Store, Soni House, Post Office Road, Near Jain Mandir, Hingoli 431701",Mon-Sun 10:00 AM-10:00 PM,19.71,77.14,9604528233
65,"Jio Store - Opp Universal, Nizamabad","Jio Store, H. No. 5 6 361, Saraswathi Nagar, Nizamabad 503003",Mon-Sun 10:00 AM-10:00 PM,18.67443469,78.1071981,9082707030
66,"Resq Service Center - Pragathinagar, Nizamabad","Resq Service Center, Varun Techno Services, 51181 Old 56524 New, Near Passport Office, Pragathinagar, Nizamabad 503001, Telangana",Mon-Sun 09:30 AM-09:30 PM,18.671651,78.106272,0
67,"Reliance Digital - Nizamabad, Nizamabad","Reliance Digital, No. 254/259, 2nd Floor, Vinayaka Nagar, Nizamabad 503001, Telangana",Mon-Sun 11:00 AM-10:00 PM,18.664875,78.109459,7337329970
68,"Jio Store - Vinayaka Nagar, Nizamabad","Jio Store, H No 1 13 384, Vinayak Nagar, Hyderabad Road, Nizamabad 503001",Mon-Sun 10:00 AM-10:00 PM,18.6625238,78.1124863,9082701591
69,"Jio Store - Anupam Nagar, Rajnandgaon","Jio Store, Digvijay Stadium Road , Anupam Nagar Ward 19 Ranjandgaon 491441",Mon-Sun 10:00 AM-10:00 PM,21.0908,81.0202,9082708297
70,Reliance Digital - Karimnagar,"Reliance Digital, No. 1342, 1347, 1348B & 1349, Opposite SRR Government College, Vivekanandapuri, Karimnagar 505001, Telangana",Mon-Sun 11:00 AM-10:00 PM,18.45604,79.11785,7680076916
71,"Resq Service Center - Karimnagar, Karimnagar","Resq Service Center, Laptop Care, No. 10-3-506, Ground Floor, Opp.  RTC Work Shop, Near S R R Government College, Jagityal Road, Karimnagar 505001, Telangana",Mon-Sun 09:30 AM-09:30 PM,18.4543685,79.1137039,0
72,"Jio Store - Captian Vijay Raghunadhan Road, Karimnagar","Jio Store, H NO. 2 6 289, Near Inspection Bunglow, Captain Vijay Raghunadhan Road,Karimnagar, Telangana 505001",Mon-Sun 10:00 AM-10:00 PM,18.4380586,79.1277225,9082704995
73,"Resq Service Center - Nanded, Nanded","ResQ Service Center, Pranav Enterprises, 561/1, Airport Road, Nanded 431605, Maharashtra",Mon-Sun 09:30 AM-09:30 PM,19.17568,77.322814,0
74,"Jio Store - New Mondha, Hingoli naka, Nanded","Jio Store, Shop No 3, Ashwan Building, MGM College Road, Hingoli Naka, Nanded 431605",Mon-Sun 10:00 AM-10:00 PM,19.172935011,77.322195645,9082703890
75,"Jio Store - Taroda Naka, Shramsafalay, Nanded","Jio Store, Shop No 2, Shyamsaflya, Maniknagar Bus Stop, Chaitanyanagar Road, Taroda (Bk), Nanded 431605",Mon-Sun 10:00 AM-10:00 PM,19.1838989,77.306262,9082711362
76,"Jio Store - ITI Road ,ITI Tower, Nanded","Jio Store, Shop No 206, Shukla Complex, Near Iti, Iti Road, Nanded 431602",Mon-Sun 10:00 AM-10:00 PM,19.1677472,77.3049462,9082711370
77,"Reliance Digital - Lothiya Complex, Nanded","Reliance Digital, Lothiya Complex, Shivaji Nagar, Next to Dominos Pizza, Nanded 431602, Maharashtra",Mon-Sun 11:00 AM-10:00 PM,19.1668522,77.3052127,7755904129
78,"Jio Store - Opp. Collector office, Nanded","Jio Store, Shop No 2, Shraddha Building, Opp Collector Office, Nanded 431602",Mon-Sun 10:00 AM-10:00 PM,19.153806,77.3126885,9082711389
79,"Jio Store - Opp RTC Bus Depot, Bodhan","Jio Store, H. No.:-4-2-331 Opp RTC Bus Depot Main Road Bodhan 503185",Mon-Sun 10:00 AM-10:00 PM,18.65770273,77.8954559,9082706691
80,"Jio Store - Ilahi Manzil, Basmat","Jio Store, Ilahi Manzil, Shop No. 01, Near Mama Chowk, Station Road, Basmath Dist: Hingoli 431512",Mon-Sun 10:00 AM-10:00 PM,19.32,77.15,9082706228
81,"Jio Store - Veer Bhagat Singh Chowk, Shegaon","Jio Store, Watika chowk, khamgawn road shegaw,near punam hotel , shegaw",Mon-Sun 10:00 AM-10:00 PM,20.79,76.68,9082714063
82,"Jio Store - Geetha Bhavan, Karimnagar","Jio Store, 7 4 422/1, Geeta Bhavan Circle, Karimnagar 505001",Mon-Sun 10:00 AM-10:00 PM,18.4369992,78.1225299,9082707745
83,"Jio Store - Main Market, Itarsi","Jio Store, Shop No.1 Ground Floor Near State Bank Of India 3rd Line Main Market Itarsi 461111",Mon-Sun 10:00 AM-10:00 PM,22.61073,77.76942,9082701467
84,"Jio Store - Vivekananda Colony, Kamareddy","Jio Store, H.No.5-5-74 , Vivekananda Colony, Main Road Kamareddy Nizamabad. Pin: 503111",Mon-Sun 10:00 AM-10:00 PM,18.32403958,78.33288631,9082706628
85,"Reliance Digital - Kamareddy, Kamareddy","Reliance Digital, Ground, First & Second Floor, No. 5-4 123, Ward No. 29, Beside Muncipal Office, NH 7 Road, Kamareddy 503111, Telanagana",Mon-Sun 10:00 AM-10:00 PM,18.322676,78.333409,9390105276
86,"Jio Store - Indira Market (Station Road), Durg-Bhilainagar","Jio Store, Shop No 1, Ground Floor, Raja Bada, Plot No 92/1 2, Station Road, Durg 491001",Mon-Sun 10:00 AM-10:00 PM,21.1905226,81.2807042,9082709493
87,"Reliance Digital - Durg, Durg","Reliance Digital, Ground Floor, First Floor & Second Floor, Jundutt, Infra, Indra Market Road, Polsayapara, Durg 491001, Chhattisgarh",Mon-Sun 10:00 AM-10:00 PM,21.191402,81.281387,9752097136
88,"Jio Store - Akola Bazar, Khamgaon","Jio Store, SHOP 1  BULDHANA URBAN CO OP CREDIT SOC, GANDHI CHOWK, AKOLA BAZAR, Khamgaon 444303",Mon-Sun 10:00 AM-10:00 PM,20.705433,76.568126,9082703602
89,"Jio Store - R.K. Heights, Gurdwara Rd, Durg-Bhilainagar","Jio Store, Ground Floor, RK Heights, Amdi Mandir Ward, Station Road, Durg 491001",Mon-Sun 10:00 AM-10:00 PM,21.1979528,81.2884367,9082704495
90,"Jio Store - Mukta Nagar, Durg-Bhilainagar","Jio Store, Shop No 5, Ground Floor, Matto Shri Complex, Maharaja Chowk, Mukt Nagar, Durg 491001",Mon-Sun 10:00 AM-10:00 PM,21.1743876,81.2959327,9082703684
91,"Reliance Digital - Treasure Island, Bhilai","Reliance Digital, Shop Nos. G 01, 02 and 03, Lower Ground Floor, Treasure Island Mall, Junwani, Bhilai 490020, Chhattisgarh",Mon-Sun 11:00 AM-10:00 PM,21.218027,81.32271,9752097136
92,"Jio Store - Rogi Kalyan Samiti, Mandla","Jio Store, housing board colony,shop no. 3manhidra tractor agency ke samne 481661",Mon-Sun 10:00 AM-10:00 PM,22.60691,80.37021,8305951763
93,"Jio Store - Supela (Dakshin Gangotri), Durg-Bhilainagar","Jio Store, Shop No A 45, Dakshin Gangotri Complex, Suphela, Bhilai, Durg 490023",Mon-Sun 10:00 AM-10:00 PM,21.2057406,81.349625,9082704494
94,"Reliance Digital - Laxmi Heights, Bhilai","Reliance Digital, Plot No. A-7, Akash Ganga, Supela, Bhilai, Durg 490023, Chhattisgarh",Mon-Sun 11:00 AM-10:00 PM,21.2062528,81.3514249,8770591721
95,"Resq Service Center - Contractor Colony, Durg","Resq Service Center,  Aditya Star Sales & Services, Plot No. 5-67, Contractor Colony, GE Road, Supela Bhilai, Durg-Bhilainagar 490023, Chhattisgarh",Mon-Sun 09:30 AM-09:30 PM,21.2088853,81.3551348,0
96,"Jio Store - GE Road, BHILAI","Jio Store, Plot No. 20, Shastri Nagar Camp No. 1, G E RoadBhilai 490023",Mon-Sun 10:00 AM-10:00 PM,21.208039,81.3618409,9082704165
97,"Jio Store - Jugani Complex, Hoshangabad","Jio Store, Shop No.2 Jugani Complex Infront Of Railway Station Hoshangabad (MP) 461001",Mon-Sun 10:00 AM-10:00 PM,22.75218113,77.71750562,9082708903
98,"Reliance Digital - Siddipet, Siddipet","Reliance Digital, Ground & First Floor, No. 12-3192/1, Mohinpura Street, Medak Road, Siddipet, Medak 502103, Telangana",Mon-Sun 11:00 AM-10:00 PM,18.1041,78.8444,6305801143
99,"Jio Store - Medak Road, Siddipet","Jio Store, Shop No 9-1-90 Ground Floor, Medak Road, Siddipet Medak District, Siddipet 502103",Mon-Sun 10:00 AM-10:00 PM,18.1016069,78.8484686,0
100,"Jio Store - Harda, Harda","Jio Store, Ground Floor, Shop No. 1, SLG Tower, Near Ghanta Ghar, Harda 461331, Madhya Pradesh",Mon-Sun 10:00 AM-10:00 PM,22.336294,77.088969,9326940337
101,"Jio Store - Station Road, Parbhani","Jio Store, Sai Shraddha Complex, SR No.92/2831, Shop No. 3,Near Peda Hanuman Temple, Station road. 431401",Mon-Sun 10:00 AM-10:00 PM,19.2599259,76.7738757,9404770983
102,"Jio Store - Rambag Sadar, Dhamtari","Jio Store, Ratan Complex Rambag Chowk , Dhamtari 493773",Mon-Sun 10:00 AM-10:00 PM,20.6976,81.5525,9082701221
103,"Reliance Digital - Hanumakonda, Warangal","Reliance Digital, 5-11-503 and 504, Kakatiya University Cross Road, Lashkar Singaram Village, Hanumakonda, Warangal 506001, Telangana",Mon-Sun 11:00 AM-10:00 PM,18.0203969,79.5513725,8978963171
104,"Reliance Digital - Asian Sridevi Mall, Warangal","Reliance Digital, First Floor, Asian Sridevi Mall, Asian Sridevi Multiplex, Balasamudram, Patnam Road, Hanamkonda, Warangal 506001, Telanagana",Mon-Sun 10:00 AM-10:00 PM,18.0045612,79.5629359,6301855211
105,"Jio Store - Hanumakonda RTC Bus Stand , Warangal","Jio Store, 6 8 198, Hanumakonda Chowrastha, Warangal Dist, Andhra Pradesh 506001",Mon-Sun 10:00 AM-10:00 PM,18.00528,79.57067,8928443738
106,"Jio Store - Subedari, Warangal","Jio Store, No 1 7 682, Subedari, Hanmakonda, Warangal City & Corporation, Warangal 506002",Mon-Sun 10:00 AM-10:00 PM,17.9957442,79.5494065,9082711883
107,"Jio Store - Pragathinagar, Warangal","Jio Store, H No 24 7 215, Pragathi Nagar, Kazipet, Warangal City & Corporation, Warangal 506003",Mon-Sun 10:00 AM-10:00 PM,17.9898295,79.5333988,9082704571
108,"Resq Service Center - Orsu Sai Nagar Colony, Warangal","Resq Service Center, Raylite Solution, 12/8/298/14/5, Survey No. 579/A - 581 B, Orsu Sai Nagar Colony, Hunter Road, Warangal 506002, Telangana",Mon-Sun 09:30 AM-09:30 PM,17.9878236,79.5673039,0
109,"Reliance Digital - Jakotia, Warrangal","Reliance Digital, Jakotia Complex, Ground Floor, Shop Nos. 11-18 47-52, Pochamma Maidan, Vasavi Colony, MG Road, Warangal 506002, Telangana",Mon-Sun 11:00 AM-10:00 PM,17.989035,79.599979,6303921332
110,"Jio Store - JPN Rd, Warangal","Jio Store, Municipal No 8 11 194/1 Situated At Jpn Road, Warangal City & Corporation, 506002",Mon-Sun 10:00 AM-10:00 PM,17.9784191,79.5986904,9082712101
111,"Reliance Digital - South Avenue, Jabalpur","Reliance Digital, 36/4, South Avenue Mall, First Floor, Narmada Road, Jabalpur 482002, Madhya Pradesh",Mon-Sun 11:00 AM-10:00 PM,23.124103,79.927313,9752412838
112,"Jio Store - Sunder Nagar, Raipur","Jio Store, Ground Floor, Orbit Tower, Mahadev Ghat Road, Sunder Nagar, Raipur 492013, CH",Mon-Sun 10:00 AM-10:00 PM,21.234302,81.610286,9372763101
113,"Jio Store - Maruti Business Park, Thatibandh, Raipur","Jio Store, Shop No B 1, Ground Floor, Maruti Business Park, Nazul Land Block No 27, 30 & 31, Plot No 8 & 2, Raj Kumar College, Ge Road, Raipur 492099",Mon-Sun 10:00 AM-10:00 PM,21.2437515,81.6117476,9082711794
114,"Jio Store - Madan Mahal Jabalpu, Jabalpur","Jio Store, Ground Floor  Shop no 8, Krishna deep Complex, Narsingh Ward Madan Mahal Crossing, JABALPUR",Mon-Sun 10:00 AM-10:00 PM,23.156996,79.918007,9324805204
115,"Jio Store - Gorakhpur Bazaar, Jabalpur","Jio Store, Shop No 7, Ground Floor, Chopra Chambers, Bunglow No 655, Katanga Crossing, Napier Town, Gorakhpur, Jabalpur 482002",Mon-Sun 10:00 AM-10:00 PM,23.1516093,79.9362966,9082709231
116,"Resq Service Center - Jabalpur, Jabalpur","Resq Service Center, Gayatri Enterprises, Flat No. 4, Block A, Dutt Appartment, Sneh Vihar, Napier Town, Jabalpur 482001, Madhya Pradesh",Mon-Sun 09:30 AM-09:30 PM,23.15833,79.92825,0
117,"Reliance Digital - Jabalpur, Jabalpur","Reliance Digital, Plot No. 28 & 30, Near Shashtri Bridge, Napier Town, Jabalpur 482002, Madhya Pradesh",Mon-Sun 10:00 AM-10:00 PM,23.1591832,79.9300622,8319747871
118,"Resq Service Center - Raipur, Raipur","Resq Service Center, Classic Services, House No. 54/9, Mukut Nagar, Raipur 492010, Chhattisgarh",Mon-Sun 09:30 AM-09:30 PM,21.25,81.629997,0
119,"Jio Store - Wright Town, Jabalpur","Jio Store, Shop No 1, Ground Floor, Raj Leela Tower, Plot No 4, Diversion Sheet No 154 A, Wright Town Extension, Jabalpur 482002",Mon-Sun 10:00 AM-10:00 PM,23.1678075,79.9283234,9082713509
120,"Jio Store - Naudra Bridge, Jabalpur","Jio Store, Shop No 2, Ground Floor, Corporation Market, Naudra Bridge, Jabalpur 482001",Mon-Sun 10:00 AM-10:00 PM,23.1657449,79.9357399,8928443589
121,"Jio Store - Jaistambh Chowk, Raipur","Jio Store, Ground Floor, Plot No. 2/122, Opp. Old Police Station, Jaistambh Chowk, Raipur 492001, CH",Mon-Sun 10:00 AM-10:00 PM,21.24349,81.635102,9372713721
122,"Jio Store - Assem Commercial Plaza, South Civil Lines, Jabalpur","Jio Store, Shop No 19, Ground Floor, Caravs Aseem Complex, (S) Civil Lines, Jabalpur 482004",Mon-Sun 10:00 AM-10:00 PM,23.1612768,79.9488436,9082713058
123,"Jio Store - Nagdeo Plaza, Raipur","Jio Store, Shop No 1, Ground Floor, Nagdev Plaza, Plot No 2/ 26, Civil Station, Jail Road, Near Kutchery Chowk, Raipur 492001",Mon-Sun 10:00 AM-10:00 PM,21.24758,81.6416449,9082709059
124,"Jio Store - RD Tower, Jabalpur","Jio Store, G.F.,SHOP NO.210023,R.D.TOWER,KACHNAR CITY ROAD,AHINSA CHOWK,VIJAY NAGAR,JABALPUR",Mon-Sun 10:00 AM-10:00 PM,23.185,79.9096,9082714304
125,"Jio Store - Katora Talab Raipu, Raipur","Jio Store, Shop No 6, Ground Floor, Ahuja Complex, Nazul Land Block, No C, Plot No 161/1, Katora Talab, Raipur 492001",Mon-Sun 10:00 AM-10:00 PM,21.2345829,81.6513297,9082712134
126,"Jio Store - Pandri Main Road, Raipur","Jio Store, Ground Floor, Plot No. 18/1424 & 18/ 711, Pandri Main Road, Opposite Amar Complex, Raipur 492004, Chattisgarh",Mon-Sun 10:00 AM-10:00 PM,21.252141,81.6480991,9372757843
127,"Reliance Digital - Near Mandi Gate, Raipur","Reliance Digital, Ground Floor & First Floor, Sheet No. 8, Ph No. 109, Near Mandi Gate, Next to CG Elite Complex, Pandri Main Road, Raipur 492001, Chhattisgarh",Mon-Sun 10:00 AM-10:00 PM,21.258667,81.655139,6263453063
128,"Jio Store - Telibandha (Iswari Plaza), Raipur","Jio Store, Shop No 8, Ground Floor, Ishwari Plaza, Telibandha, Near Dhamtari Railway Crossing, GE Road, Raipur 492006",Mon-Sun 10:00 AM-10:00 PM,21.2407222,81.6609091,9082704551
129,"Jio Store - Malkapur, Malkapur","Jio Store, Ground Floor, Shop no :-03,S/N-248/1,Plot No 14,Buldhana Road ,Malkapur-443101",Mon-Sun 10:00 AM-10:00 PM,20.8747,76.202333,9082704472
130,"Jio Store - Vinit Estate, Shankar Nagar, Raipur","Jio Store, Shop No 3, Ground Floor, Vinit Estates, Block A, Shankar Nagar, Raipur 492007",Mon-Sun 10:00 AM-10:00 PM,21.2474867,81.6603885,9082704291
131,"Jio Store - Jijamata Sports & Comm Complex, Buldana","Jio Store, SHOP NO 44 A, JIJAMATA SPORTS & COMMERCIAL COMPLEX, MAIN ROAD, Buldana 443001",Mon-Sun 10:00 AM-10:00 PM,20.54,76.18,9082703609
132,"Reliance Digital - Platinum Square, Raipur","Reliance Digital, Mezzanine & Ground Floor, Platinum Square, Near Mii Square, Raipur 492001, Chhattisgarh",Mon-Sun 10:00 AM-10:00 PM,21.2378074,81.6716155,9399023422
133,"Jio Store - JDA Complex, Ranjhi, JABALPUR","Jio Store, Ground Flr Adarsh Market, JDA Scheme No 7 Main Rd, Ranjhi Jabalpur MP",Mon-Sun 10:00 AM-10:00 PM,23.195999,79.999742,9324805329
134,"Jio Store - Karanj Bazar, Burhanpur","My Jio Store, Plot No 160, Abhinandan Complex. Block no 36. Shastri Chowk. Near Shani Mandir, Burhanpur - 450331",Mon-Sun 10:00 AM-10:00 PM,21.308275,76.232784,9082701814
135,"Jio Store - Vaikunth Nagar Colony, Khandwa","Jio Store, Plot No 61 & 62 As per Maintenance Shee Block No Civil Line 67 Vaikunth Nagar colony Khandwa 450001",Mon-Sun 10:00 AM-10:00 PM,21.8215088,76.31564143,9082701211
136,Apple Authorised Service Provider - Reliance resQ -  Bhopal,"Apple Authorised Service Provider, Shop No.13, Second Floor, Mapple High Street, Vidhya Nagar, Phase 2 (BDA),  Bawadiya Kala, Ward No.52, Bhopal 462026, Madhya Pradesh",Mon-Sun 10:30 AM-06:30 PM,23.160841,77.467217,0
137,"Reliance Digital - Ashima Mall, Bhopal","Reliance Digital, Ashima Mall, Plot No. 67-68, Ganesh Nagar Colony, Village Babadiya Kalan, Hoshangabad Road, Bhopal 462026, Madhya Pradesh",Mon-Sun 11:00 AM-10:00 PM,23.182984,77.456642,8770892948
138,"Jio Store - Medchal, Kapil Chits building, Hyderabad","Jio Store, Plot No 25, Part B, Kapil Chits Building, Medchal & Town, Ranga Reddy District, Hyderabad 501359",Mon-Sun 10:00 AM-10:00 PM,17.63157,78.48489,8928443752
139,"Jio Store - Nirupam Shopping Mall, Bhopal","Jio Store, Ground Floor, Shop No 8,12. Nirupam Shopping Mall, Patwari Halka No 42, Hoshangabad Road, Bhopal 462026",Mon-Sun 10:00 AM-10:00 PM,23.1872135,77.4524583,9082705209
140,"Jio Store - M SSST Parli, Parli","Jio Store, Samrat Complex Thermal Road Parli Dist: Beed 413515",Mon-Sun 10:00 AM-10:00 PM,18.85,76.52,9082706046
141,"Resq Service Center - Arera Colony, Bhopal","Resq Service Center, Easyway Solutions, E-8/65, Shiva Kunj, Railyway Colony, Near 12 No. Stop, Arera Colony, Bhopal 462016, Madhya Pradesh",Mon-Sun 09:30 AM-09:30 PM,23.1913051,77.437933,0
142,"Reliance Digital - Drishti Plaza, Bhopal","Reliance Digital, No. 162, Ground and First Floor, Drishti Plaza, Sarvadharam Colony, Kolar Road, Bhopal 462042, Madhya Pradesh",Mon-Sun 11:00 AM-10:00 PM,23.1856,77.4176,9343604951
143,"Jio Store - Awadhpuri, Bhopal","Jio Store, Ground FloorPlot   160, Awadhpuri Colony  Khajuri Kalan, Tehsil Huzur Bhopal",Mon-Sun 10:00 AM-10:00 PM,23.229342,77.487256,9372764681
144,"Jio Store - 10 Number Market, Bhopal","Jio Store, Shop No. G1, Plot No. 28, Sector E-4, Arera Colony, 10 Number Market, Bhopal 462016, Madhya Pradesh",Mon-Sun 10:00 AM-10:00 PM,23.2142573,77.4362011,0
145,"Jio Store - KK Platinum, Gulmohar Colony, Bhopal","Jio Store, Shop No 5, Ground Floor, Kk Platinum Complex, Krishna Vihar, Village Babadiya Kalan, Bhopal 462039",Mon-Sun 10:00 AM-10:00 PM,23.216398226,77.431554901,9082711085
146,"Jio Store - Chunabhatti, Bhopal","Jio Store, Shop No G5 & G16, Ground Floor, The Mall, Patel Colony, Windsor Delight, Chunabhatti, Kolar Road, Bhopal 462042",Mon-Sun 10:00 AM-10:00 PM,23.2112617,77.4189622,9082712877
147,"Jio Store - Bidar, Bidar","Jio Store, D Xpresss Mini Shakuntal Complex , Bus Stand Main Road Bidar 585401",Mon-Sun 10:00 AM-10:00 PM,17.9208713,77.5113463,9082713376
148,"Jio Store - Mansoravar Complex, Bhopal","Jio Store, Shop No Ground Floor 05A, Uground Floor, Mansarovar Complex, Near Habibganj Railway Station, Hoshangabad Road, Bhopal 462011",Mon-Sun 10:00 AM-10:00 PM,23.2248296,77.436271,9039210797
149,"Reliance Digital - Shivnagar, Bidar","Reliance Digital, Ground & First Floor, Papnash Gate, Aliayabad, Shivnagar, Bidar 585401, Karnataka",Mon-Sun 10:00 AM-10:00 PM,17.9250662,77.5003703,7815072795
150,"Resq Service Center - Bidar, Bidar","ResQ Service center, N P Enterprises, Shop No. 9-6-416, 1st Floor, Sindol Complex, BVB College Road, Bidar 585401, Karnataka",Mon-Sun 09:30 AM-09:30 PM,17.909641,77.5188663,0
151,"Reliance Digital - Indrapuri, Bhopal","Reliance Digital, Plot No. 29 C, Near ESIC Hospital, Indrapuri, Raisen Road, Bhopal 462022, Madhya Pradesh",Mon-Sun 10:00 AM-10:00 PM,23.249931,77.466743,9654275998
152,"Reliance Digital - DB Mall, Bhopal","Reliance Digital, DB City Mall, 2nd Floor, Shop No S36/37, Arera Hill, Sanjay Nagar, Jail Road, Bhopal 462011, Madhya Pradesh",Mon-Sun 11:00 AM-10:00 PM,23.233487,77.43029,9685094040
153,"Jio Store - Har Govind Complex, MP Nagar, Bhopal","Jio Store, Ground Floor, Hargovind Complex, Plot No 212, Zone I, Mp Nagar, Bhopal 462011",Mon-Sun 10:00 AM-10:00 PM,23.2348504,77.432349,9082709362
154,"Jio Store - Indirapuri, Bhopal","Jio Store, Shop No 1, Ground Floor, Plot No 34, Sector A, Scheme No 62, Indrapuri, Bhopal",Mon-Sun 10:00 AM-10:00 PM,23.2512154,77.4587772,7000204997
155,"Jio Store - Minal Shopping Complex, Bhopal","Jio Store, Shop No 116 117 at UGF Minal Mall, J K  Rd, Narela Shankari Tehsil  Huzur, BHOPAL",Mon-Sun 10:00 AM-10:00 PM,23.26748,77.45939,7000212400
156,"Jio Store - New Market, TT Nagar, Bhopal","Jio Store, Ground Floor, Plot No 55, New Market, TT Nagar, Bhopal 462003",Mon-Sun 10:00 AM-10:00 PM,23.2340056,77.4000819,9082705138
157,"Resq Service Center - Bhongir, Bhongir","ResQ Service center, Siri Enterprises, 1-5-118/A, Near Railway Station, Santosh Nagar, Yadagiri, Bhongir 508116, Telangana",Mon-Sun 09:30 AM-09:30 PM,17.52435,78.89968,0
158,"Jio Store - Kartar Complex, Capital Petrol Pump, Bhopal","Jio Store, Shop No 11, Ground Floor, Kartar Arcade, Gurunanakpura, Ward No 39, Raisen Road, Bhopal 462001",Mon-Sun 10:00 AM-10:00 PM,23.2529842,77.4279376,8770130456
159,"Jio Store - Sangjivaya road, Sircilla","Jio Store, H.No:2-7-80,karimnagar road sangjivaya road,sirsilla 505301",Mon-Sun 10:00 AM-10:00 PM,19.2564,81.7295,9082708394
160,"Jio Store - Jahangirabad, Bhopal","Jio Store, Gf Plot No 77 Jinsi Road, Near Police Cid Bhavan, Jahangirabad Bhopal",Mon-Sun 10:00 AM-10:00 PM,23.248427,77.41536,8770919620
161,"Jio Store - Bhongir, Bhongir","Jio Store, Mr.Narender H.no-3-2-117/5 A , Near area hospital, Beside TVS show room Bhongir Nalgonda. Pin: 508116",Mon-Sun 07:00 AM-01:00 PM,17.511757,78.8818765,9082706590
162,"Jio Store - Peergate, Bhopal","Jio Store, Shop No 3, Ground Floor, Manoj Bhawan, 31 Imami Gate, Near Peer Gate Chowraha, Bhopal 462001",Mon-Sun 10:00 AM-10:00 PM,23.2592383,77.3980173,9082704873
163,"Jio Store - Maharaja Complex, Hamidia Road, Bhopal","Jio Store, Shop No 3, Ground Floor, Maharaja Complex, 10 A/2, Hamidia Road, Bhopal 462001",Mon-Sun 10:00 AM-10:00 PM,23.2644741,77.4065997,7999529951
164,"Jio Store - Sangareddy, Sangareddy","Jio Store, Door No 5 2 32, Beside District Court, Sangareddy 502001",Mon-Sun 10:00 AM-10:00 PM,17.6192064,78.0808997,9082704415
165,"Jio Store - Berasia Road, Bhopal","Jio Store, Shop No. 9, Chinar Estates, Berasia Road, Bhopal, Madhya Pradesh 462001",Mon-Sun 10:00 AM-10:00 PM,23.2771823,77.4032865,9826471932
166,"Jio Store - Koh-e-Fiza, Bhopal","Jio Store, Sehgal Tower, Plot No. A 15, Housing Board Colony, Koh-e-Fiza, Bhopal 462001, Madhya Pradesh",Mon-Sun 10:00 AM-10:00 PM,23.2675435,77.3784548,0
167,"Reliance Digital - Nagaram, Hyderabad","Reliance Digital, No. 5-14 & 5-13/1, Plot No. 1P725, Nagaram Village, Keesara Mandal, Medchal, Hyderabad 500083, Telangana",Mon-Sun 11:00 AM-10:00 PM,17.490635,78.601667,9700167676
168,"Jio Store - Royal Residence Al, Hyderabad","Jio Store, Royal Residence, Alwal,Hyderabad, Royal Residence, Plot No19, Jawahar Co Opertive Society, Alwal Municpality, Hyderbad 500010",Mon-Sun 10:00 AM-10:00 PM,17.4994137,78.5113157,9082713663
169,"Reliance Digital - Quthbullapur, Hyderabad","Reliance Digital, Block G, Jeedimatta Village, Quthbullapur Mandal, Hyderabad 500014, Telangana",Mon-Sun 11:00 AM-10:00 PM,17.504389,78.478201,9959555889
170,"Jio Store - Nizampet Bachupally, Hyderabad","Jio Store, GF Maruthy Nilayam  Sp No B3 bearing No3, 147 1 C B3 Nizampet Vlg & Gramapanchayat, Bachupally Mandal Medchal Malkajgiri",Mon-Sun 10:00 AM-10:00 PM,17.515217,78.382485,9321004806
171,"Jio Store - Kushaiguda, Hyderabad","Jio Store, GF P No 7A 7B covered Sy No 252/1, Nagarjuna Nagar, Kushaiguda Kapra Mandal, HYDERABAD",Mon-Sun 10:00 AM-10:00 PM,17.47996,78.582184,9321005027
172,"Jio Store - AS Rao Nagar, Hyderabad","Jio Store, Kalyan Plaza 12A & 12B, Rukminipuri Housing Colony, Kapara Municipality, Keesara Mandal, Ranga Reddy, Hyderabad 500062",Mon-Sun 10:00 AM-10:00 PM,17.4813271,78.5545908,9082713465
173,"Resq Service Center - Old Bowenpally, Hyderabad","Resq Service Center, Bhavana Technologies, Plot No. 3, No. 5-54/35, First Floor, Swarnadham Nagar, Military Diary Farm Road, Old Bowenpally, Secunderabad 500009, Telangana",Mon-Sun 09:30 AM-09:30 PM,17.489381,78.480144,0
174,"Reliance Digital - Dr. AS Rao Nagar, Hyderabad","Reliance Digital, Jyothi Acropolis, No. 1-7-43/220, 221, 236, 237, Besides Radhika Theatre, Dr. AS Rao Nagar, ECIL Post, Hyderabad 500062, Telangana",Mon-Sun 11:00 AM-10:00 PM,17.4767343,78.5638729,9182054241
175,"Jio Store - Nizampet, Hyderabad","Jio Store, HNo: 1 2 45/4, Hydernagar, Nizampet Road, Hyderabad 500072",Mon-Sun 10:00 AM-10:00 PM,17.5031866,78.388297,9082710035
176,"Jio Store - Chintal, Hyderabad","Jio Store, 48 310, Ganesh Nagar, Hmt Road, Chintal, Quthabullapur, Hyderabad 500054",Mon-Sun 10:00 AM-10:00 PM,17.491737835,78.451483669,8928443742
177,"Resq Service Center - Parklane Hotel, Hyderabad","Resq Service Center, Mythri Electronics, No. 1-2-253/5, 1st Floor, 95, Laxmi Narsu Mansion, Opp. Parklane Hotel, Secunderabad 500003, Telangana",Mon-Sun 09:30 AM-09:30 PM,17.475551,78.560142,0
178,"Jio Store - ECIL X Road, Hyderabad","Jio Store, GF H No 1 7 213 Plot No 60/A  SY  No 316, Kamalanagar Housing Colony ECIL X Road, Kapara Village and Mandal Ranga Reddy Di",Mon-Sun 10:00 AM-10:00 PM,17.473114,78.57048,9321004818
179,"Reliance Digital - Rama Arcade, Jalna","Reliance Digital, Rama Arcade, Opp. Jain Bhavan, Near Chatrapati Shivaji Maharaj Chowk, Jalna Road, Karwa Nagar, Jalna 431203, Maharashtra",Mon-Sun 11:00 AM-10:00 PM,19.844384,75.907619,9326220575
180,"Jio Store - KPHB, Usha Mullapudi, Hyderabad","Jio Store, H No 2 22 232/3/G7, Shubodayanagar Colony, Ushamullapudi Road, Kukatpally, Hyderabad 500072",Mon-Sun 10:00 AM-10:00 PM,17.4961542,78.4062902,9082710093
181,"Jio Store - Khari Phatak Road, Vidisha","Jio Store, Infront of Hanuman Mandir, Khari Phatak road, Ward No 28, Vidisha. 464001",Mon-Sun 10:00 AM-10:00 PM,23.5252679,77.8177638,9827518883
182,"Jio Store - KPHB Alluri Trade Centre, Hyderabad","Jio Store, Alluri Trade Center No 9, Kukataplly, Hyderabad 500072",Mon-Sun 10:00 AM-10:00 PM,17.4927385,78.4039213,9082712067
183,"Jio Store - Vivekanand Marg, Hyderabad","Jio Store, No. 3 5 23/1, New Sumitranagar, Vivekanand Marg, Baghameer Village, Kukatpally, Hyderabad 500072, Telangana",Mon-Sun 10:00 AM-10:00 PM,17.490899183,78.407584578,9082703749
184,"Jio Store - Miyapur, Hyderabad","Jio Store, D No 2 80/6, In Sy No 210, Miyapur, Serilingampally Mandal & Municipality, Ranga Reddy District, Hyderabad 500049",Mon-Sun 10:00 AM-10:00 PM,17.4990902,78.361871,9082710083
185,"Reliance Digital - Balanagar, Hyderabad","Reliance Digital, Ground Floor, A2A Central Mall, Opp. IDPL Colony, Balanagar, Hyderabad 500037, Telangana",Mon-Sun 10:00 AM-10:00 PM,17.48194,78.4486853,8008579668
186,"Reliance Digital - Miyapur, Hyderabad","Reliance Digital, Sy No. 44/1, Miyapur Village, Serilingampally, Mandal, Rangareddy 500049, Telengana",Mon-Sun 10:00 AM-10:00 PM,17.49643611,78.35860833,6300817227
187,Apple Authorised Service Provider - Reliance resQ -  Secunderabad,"Apple Authorised Service Provider, 30-10-1/A Sy. No. 56, Motivalley, Thirumalagiri, Secundrabad 500009, Telangana",Mon-Sun 10:30 AM-06:30 PM,17.4700379,78.5088361,0
188,"Resq Service Center - Ravi Colony, Hyderabad","Resq Service Center, Kakathi Communications Private Limited, Plot No. 14, Survey No 28/2, Ravi Colony, Tirumalhherry, Secunderabad 500015, Telangana",Mon-Sun 09:30 AM-09:30 PM,17.4691621,78.5090865,0
189,"Resq Service Center - Balaji Nagar, Hyderabad","Resq Service Center, Sri Arunaditya Enterprises, 15-21-48/1, Ground Floor, Opp. Rao High school, Balaji Nagar, Kukatpally, Hyderabad 500073, Telangana",Mon-Sun 09:30 AM-09:30 PM,17.4838952,78.4108885,0
190,"Jio Store - Thirumalagiri Main Road, Hyderabad","Jio Store, Plot No. 7, Chandragiri CHS, Thirumalagiri Main Road, Secunderabad 500015, Telangana",Mon-Sun 10:00 AM-10:00 PM,17.4681305,78.5071852,9082705275
191,"Jio Store - Kukatpally, Hyderabad","Jio Store, H No 12 6 2/ 273/ 2, Vc Plaza, Opp Bjp Office, Kukatpally, Hyderabad 500073",Mon-Sun 10:00 AM-10:00 PM,17.482968,78.4139067,9082713161
192,"Reliance Digital - Kukatpally, Hyderabad","Reliance Digital, 6-11 and 6-11/1, Vijaya Sai Towers, Opp. BJP Offfice, Vivek Nagar, Kukatpally, Hyderabad 500072, Telangana",Mon-Sun 11:00 AM-10:00 PM,17.4820427,78.414457,9701376768
193,"Reliance Digital - Madniguda, Hyderabad","Reliance Digital, Satyanarayan Enclave, Besides Hyundai Showroom, Madniguda, NH-9, Hyderabad 500032, Telangana",Mon-Sun 11:00 AM-10:00 PM,17.4959022,78.3381842,9963029697
194,"Reliance Digital - Kukatpally, Hyderabad","Reliance Digital, S1 Survey No. 1043 and 1048, KBHB - 1 and 2 Phase, Kukatpally, Hyderabad 500072, Telangana",Mon-Sun 11:00 AM-10:00 PM,17.4833,78.3935,8008501411
195,"Reliance Digital - Nexus Forum, Hyderabad","Reliance Digital, Lower Ground Floor, Forum Sujana Mall,  Sy. No. 1009, KuKatpally, Balanagar Mandal, Ranga Reddy 500072, Telangana",Mon-Sun 11:00 AM-10:00 PM,17.48397,78.38874,9666617137
196,"Jio Store - Jalna, Jalna","Jio Store, Shop No.20 B R Jindal Super Market No B1 Jalna",Mon-Sun 10:00 AM-10:00 PM,19.84,75.89,8999656998
197,"Jio Store - Anandbagh, Hyderabad","Jio Store, HNo: 25 40/32/A, Adj: Reliance Fresh, Anandbagh (E), Malakagiri, Hyderabad 500059",Mon-Sun 10:00 AM-10:00 PM,17.4568641,78.5472777,9082709998
198,"Jio Store - Bowenpally, Hyderabad","Jio Store, No 111, Thokatta Village, Bowenpally, Secunderabad Cantonment, Hyderabad 500011",Mon-Sun 10:00 AM-10:00 PM,17.465162865,78.482993755,9082711892
199,"Jio Store - HB Colony Hyderaba, Hyderabad","Jio Store, H No 3 5 246/3, Road No 5, Krishna Nagar, Hb Colony, Moula Ali, Opp Rama Tea Point, Hyderabad 500040",Mon-Sun 10:00 AM-10:00 PM,17.4519646,78.5670013,9082709749
200,"Jio Store - Lingampally, Hyderabad","Jio Store, H No 3 28 & 3 29, Tara Nagar, Seri Lingampally, Hyderabad 500019",Mon-Sun 10:00 AM-10:00 PM,17.4909694,78.3172168,9082704070
201,"Jio Store - Balanagar, Hyderabad","Jio Store, No. 6-3-131/15, Narsapur X Road, Balanagar, Hyderabad 500037, Telangana",Mon-Sun 10:00 AM-10:00 PM,17.466797,78.4463422,0
202,"Reliance Digital - Odyssey, Vikrampuri","Reliance Digital, M No. 3-45-166, Plot D1, Vikrampuri Cooperative House Building Society, Vikrampuri, Kharkana, Secundrabad 500009, Telangana",Mon-Sun 10:00 AM-10:00 PM,17.455684,78.498735,7331154638
203,"Jio Store - Mallapur, Hyderabad","Jio Store, No 5 1 104/5, Annapurna Cly, Mallapur, Rr Dist, Hyderabad, 500076",Mon-Sun 10:00 AM-10:00 PM,17.4423099,78.5657821,9082712275
204,"Jio Store - Saket Road, Hyderabad","Jio Store, No. 1-30/60/7, Plot No. 1, Main Road, G R Reddy Nagar, Saket, Hyderabad 500062, Telangana",Mon-Sun 10:00 AM-10:00 PM,17.4423308,78.5657744,9082712214
205,"Jio Store - Malkajgiri, Hyderabad","Jio Store, Ground Flr   H No 9139, Venkateshwara Nagar, Near Sai Ram Theatre Malkajgiri",Mon-Sun 10:00 AM-10:00 PM,17.445879,78.535688,9372764066
206,"Jio Store - West Maredpally, Hyderabad","Jio Store, (W) Maredpally,Secundrabad, Municipal No:3 6 202& 205,Boosareddyguda, (W) Maredpally, Seunderabad, 500026",Mon-Sun 10:00 AM-10:00 PM,17.4489891,78.5038189,9082713656
207,"Reliance Digital - AMG Plaza, Secundrabad","Reliance Digital, AMG Plaza, North Star, Ground & First Floor, Entreachment Raod, Marredpally, Secundrabad 500026, Telangana",Mon-Sun 10:00 AM-10:00 PM,17.443665,78.506794,9642204422
208,"Resq Service Center - Rangareddy, Hyderabad","ResQ Service Center, Plot No. 26 & 29, 3rd Floor, Nallagandala Village, Serilingampally Mandal, Rangareddy, Hyderabad 501508, Telangana",Mon-Sun 09:30 AM-09:30 PM,17.4772,78.3082,0
209,"Reliance Digital - Nallagandla, Hyderabad","Reliance Digital, Plot No. 26 & 29, Nallagandla, Serilingampally, Mandal Rangareddy, Hyderabad 501508, Telangana",Mon-Sun 10:00 AM-10:00 PM,17.477023,78.308345,7680993752
210,"Jio Store - Motinagar Hyderaba, Hyderabad","Jio Store, Shambavi Complex, Plot No 29 A & B, H No 1 1 104/1/S2, Hyderabad 500018",Mon-Sun 10:00 AM-10:00 PM,17.4550746,78.4225466,9082709768
211,"Jio Store - Kale Complex, Ambejogai","Jio Store, Ground Floor Shop No1Kale Complex, Opp Mewad Hotel, Shivaji Chowk Latur Road, Ambejogai, 431517",Mon-Sun 10:00 AM-10:00 PM,18.73,76.38,9082703137
212,"Reliance Digital - Kondapur, Hyderabad","Reliance Digital, Ground Floor, First Floor & Second Floor, Kondapur Village, Beside Ratnadeep Super Market, Serilingampally, Hyderabad 500084, Telangana",Mon-Sun 10:00 AM-10:00 PM,17.46416667,78.3675,9182563501
213,"Reliance Digital - Amsri Faust, Secunderabad","Reliance Digital, Amsri Faust, 9-1-165/166/166-A, Beside Hotel Basera, S.D. Road, Secunderabad, Hyderabad 500003, Telangana",Mon-Sun 11:00 AM-10:00 PM,17.4414053,78.4997003,7780379571
214,"Jio Store - Kondapur, Hyderabad","Jio Store, 2-41/A/3,  Kothaguda, Opposite Swagath Hotel, Kondapur X Road, Kondapur, Hyderabad 500084, Telangana",Mon-Sun 10:00 AM-10:00 PM,17.4628766,78.3670816,9082710173
215,"Jio Store - Main Road Hathinipara, Bhatapara","Jio Store, Maheshwari Rice Mill Complex, KK Ward, Bhatapara 493118, CH",Mon-Sun 10:00 AM-10:00 PM,21.7367,81.9399,9326940428
216,"Reliance Digital - Nacharam,  Hyderabad","Reliance Digital, H No.7-17/8, Block 1, Plot Nos. 1, 2, 3, 4, 5, Beside Vyjanthi Theatre, Nacharam Village, Uppal Mandal, Hyderabad 500076, Telangana",Mon-Sun 11:00 AM-10:00 PM,17.4301747,78.553116,9100927738
217,"Reliance Digital - Narapally, Hyderabad","Reliance Digital, Ground Floor, MJR Mall, No. 757, Narapally, Korremally Village, Ghatkesar Mandal, Medchal, Hyderabad 500088, Telangana",Mon-Sun 10:00 AM-10:00 PM,17.420138,78.637184,7032953578
218,"Reliance Digital - Sharath City Capitol, Hyderabad","Reliance Digital, Unit 2F 67-73, Second Floor, Sharath City Capitol, Gachibowli - Miyapur Road, Opposite White Fields, Kondapur, Hyderabad 500084, Telangana",Mon-Sun 11:00 AM-10:00 PM,17.457482,78.363918,9398736652
219,"Jio Store - S.R Nagar, Hyderabad","Jio Store, Shop No 3, House No 15/M8B, Sanjeeva Reddy Nagar, Hyderabad 500038",Mon-Sun 10:00 AM-10:00 PM,17.4422845,78.4427396,9082704128
220,"Reliance Digital - SR Nagar, Hyderabad","Reliance Digital, H. No. 8/A & 9/A, Vengalrao Nagar Colony, SR Nagar, Hyderabad 500038, Telangana",Mon-Sun 10:00 AM-10:00 PM,17.4418214,78.4416502,9000768779
221,"Jio Store - Chilakaguda, Hyderabad","Jio Store, Hilton Platinum, Shop No 3, Ground Floor, 11 1 690/91/1, Chilakaguda, Hyderabad 500061",Mon-Sun 10:00 AM-10:00 PM,17.4299496,78.5122398,9326940317
222,"Resq Service Center - Madura Nagar, Hyderabad","Resq Service Center, Lucky Electronics, Flat No. 1, C-20, Ground Floor, Madura Nagar, Hyderabad 500038, Telangana",Mon-Sun 09:30 AM-09:30 PM,17.4390751,78.4367009,0
223,"Jio Store - Habsiguda, Hyderabad","Jio Store, H No 7 62, 7 76, Raghavendra Complex, Habsiguda Circle, Hyderabad 500007",Mon-Sun 10:00 AM-10:00 PM,17.4194033,78.5418911,9082709915
224,"Reliance Digital - Panjagutta, Hyderabad","Reliance Digital, Ground, First & Second Floor, Municipal No. 6-3-670, Panjagutta, Hyderabad 500082, Telangana",Mon-Sun 11:00 AM-10:00 PM,17.4262698,78.4533472,9701377272
225,"Jio Store - Boduppal, Hyderabad","Jio Store, H No 1 22/ 39, Plot No 39, Peerzadiguda, Boduppal, Hyderabad 500039",Mon-Sun 10:00 AM-10:00 PM,17.4060032,78.5912069,9082710723
226,"Jio Store - Attapur, Hyderabad","Jio Store, Ground Floor13-6-431/D/82/7, Jaffarguda  Moghal Ka Nala, Gudimalkapur, HYDERABAD",Mon-Sun 10:00 AM-10:00 PM,17.42374,78.45409,9372757810
227,"Reliance Digital - Inorbit Mall, Hyderabad","Reliance Digital, Lower Ground Floor, G1-15, Inorbit Mall, Rahejas Building, Madhapur, Hitec City, Hyderabad 500081, Telangana",Mon-Sun 11:00 AM-10:00 PM,17.433648,78.386331,9014209055
228,"Reliance Digital - Gachibowli, Hyderabad","Reliance Digital, Vaishnavi Cynosure, Gachibowli Village, Serilingampally, Hyderabad 500032, Telangana",Mon-Sun 11:00 AM-10:00 PM,17.436562,78.367028,6300026285
229,"Jio Store - Station Road, Bhusawal","Jio Store, Near Amar store,station Road, bhusawal.",Mon-Sun 10:00 AM-10:00 PM,21.04724,75.78187,9082714206
230,"Jio Store - Chilukanagar, Uppal, Hyderabad","Jio Store, Ground Floor H No 2-20, Sy No 54 Chilknagar, Uppal Kalan Village Ranga Reddy, HUZURNAGAR",Mon-Sun 10:00 AM-10:00 PM,17.4058,78.5591,9372763114
231,"Reliance Digital - Hema Durga Mall, Hyderabad","Reliance Digital, Hema Durga Mall, No. 3-1/B, Shanti Nagar, Uppal Village, Uppal Mandal, Hyderabad 500039, Telangana",Mon-Sun 11:00 AM-10:00 PM,17.402327,78.571958,9000109866
232,"Jio Store - Sehore, Sehore","Jio Store, H.No.110 Word No.-26 Kotwali Chouraha Main Market Road Sehore (MP) 466001",Mon-Sun 10:00 AM-10:00 PM,23.203178,77.084048,9630936937
233,"Jio Store - Ramnagar, Hyderabad","Jio Store, Municipal No 1 9 18, Ram Nagar, Hyderabad 500020",Mon-Sun 10:00 AM-10:00 PM,17.4099362,78.5080451,9082712974
234,"Jio Store - Musheerabad Road, Hyderabad","Jio Store, No. 1-7-9/A, Opposite Musheerabad Telephone Exchange, Musheerabad Road, RTC X Road, Hyderabad 500020, Telangana",Mon-Sun 10:00 AM-10:00 PM,17.4102637,78.497753766,9082710383
235,"Reliance Digital - Shivam Road, Hyderabad","Reliance Digital, Municipal No. 2-2-3, Adikmet, Vidyanagar, Shivam Road, Hyderabad 500044, Telangana",Mon-Sun 11:00 AM-10:00 PM,17.404911,78.515032,6300026286
236,"Jio Store - Main Road, Chikadpally, Hyderabad","Jio Store, H No 1 1 195, 198 and 202, Main Road, Chikkadapally, Hyderabad 500020",Mon-Sun 10:00 AM-10:00 PM,17.404643,78.4956581,9082704217
237,"Reliance Digital - Ramanthapur Main Road, Hyderabad","Reliance Digital, Ward No. 3, Block No. 10, Ramanthapur Main Road, Uppal Mandal, Under GHMC, Rangareddy District, Hyderabad 500013, Telangana",Mon-Sun 11:00 AM-10:00 PM,17.3980964,78.5339834,9000187893
238,"Jio Store - Road No 12, Banjara Hills, Hyderabad","Jio Store, H No 8 2 629/1/B, Road No 12, Banjara Hills, Hyderabad, 500034",Mon-Sun 10:00 AM-10:00 PM,17.4080763,78.4492081,9082711985
239,"Jio Store - Amberpet (2nd Store), Hyderabad","Jio Store, GF Shop No 6, H No 2 3 528/C/1   C/2, Bagh Amberpet Hyd, HYDERABAD",Mon-Sun 10:00 AM-10:00 PM,17.395709,78.52757,9321004811
240,"Reliance Digital - Himayatnagar, Hyderabad","Reliance Digital, 3-6-553 to 558 and 558/1, Himayatnagar Main Road, Hyderabad 500029, Telangana",Mon-Sun 11:00 AM-10:00 PM,17.40154,78.48596,9676979093
241,"Jio Store - Nallakunta Hyderab, Hyderabad","Jio Store, H No: 2 1 477/1, Main Road, Prathik Towers,Nallakunta, Hyderabad 500044",Mon-Sun 10:00 AM-10:00 PM,17.3982322,78.5051972,9082709863
242,"Reliance Digital - Banjara Hills, Hyderabad","Reliance Digital, Gound and First Floor, Zonah Crescent Building, Road No. 12, Banjara Hills, Hyderabad 500034, Telangana",Mon-Sun 10:00 AM-10:00 PM,17.408153,78.439061,9398736900
243,"Jio Store - Himayath Nagar, Hyderabad","Jio Store, Ground Floor D No 3-6 726& 727, Romana Plaza, Himayathnagar, HYDERABAD",Mon-Sun 10:00 AM-10:00 PM,17.39972,78.4896054,9372764671
244,"Reliance Digital - Gowlidoddy, Hyderabad","Reliance Digital, Ground & First Floor, No. 50, 51, 56, Plot No. 4, H No 2-162/2, Gopannapally Village, Ranga Reddy, Hyderabad 500032, Telangana",Mon-Sun 10:00 AM-10:00 PM,17.427764,78.328094,9533906050
245,"Jio Store - Narayanaguda, Hyderabad","Jio Store, Survey No 35, Ferozguda Village, Urban Taluq, Narayanguda, Hyderabad 500029",Mon-Sun 10:00 AM-10:00 PM,17.3982071,78.4928457,9082703758
246,"Jio Store - Tilaknagar, Hyderabad","Jio Store, H No 2 2 1164/ 27, New Nallakunta Tilaknagar, Hyderabad 500044",Mon-Sun 10:00 AM-10:00 PM,17.3943899,78.50561472,9082710729
247,"Jio Store - Amberpet, Hyderabad","Jio Store, HNo: 2 3 70/1/6, Srisai Apartments, Padmayala Colony, Police Line, Amberpet, Hyderabad 500013",Mon-Sun 10:00 AM-10:00 PM,17.3911208,78.5162595,9082709947
248,"Reliance Digital - Tolichowki, Hyderabad","Reliance Digital, Ground Floor & First Floor, No. 8-1-330 to 346, Usha Ram Integra, Sy No. 71/A, Shaikpet Village, Tolichowki 500008, Hyderabad",Mon-Sun 11:00 AM-10:00 PM,17.405363,78.406644,7780379571
249,"Resq Service Center - Kachiguda, Hyderabad","ResQ Service center, Shashi Electronics, 2-4-255/9, 267/C, CIB Qurts, Kachiguda, Hyderabad 500027, Telangana",Mon-Sun 09:30 AM-09:30 PM,17.390112,78.502654,0
250,"Jio Store - Uni Mart, Hanuman Chowk , Latur","Jio Store, Shanakar Heritage, Shop No S 5 Chain sukh Road, Latur",Mon-Sun 10:00 AM-10:00 PM,18.400279,76.58153,9321704476
251,"Jio Store - Mehdipatnam, Hyderabad","Jio Store, MCH No 10-3-119, Humayun Nagar, Main Road, Mehdipatnam, Hyderabad 500028, Telangana",Mon-Sun 10:00 AM-10:00 PM,17.3977173,78.4433817,9082713406
252,"Reliance Digital - Kachiguda, Hyderabad","Reliance Digital, 03/03/1942 Veer Savarkar Road, Kachiguda, Hyderabad 500027, Telangana",Mon-Sun 10:00 AM-10:00 PM,17.390342,78.490433,8008404211
253,"Jio Store - Jagadish Market, Abids, Hyderabad","Jio Store, Jagdish Market, Hyderabad Shop No 32, Unity House, Abid Road Hyderabad 500001",Mon-Sun 10:00 AM-10:00 PM,17.3916227,78.4762019,9082705868
254,"Jio Store - Vijayanagar Colony, Hyderabad","Jio Store, D No 10 3 631/ A, 217/3Rt Ligh, Vijay Nagar Colony, Hyderabad 500057",Mon-Sun 10:00 AM-10:00 PM,17.3947556,78.4527301,9082712828
255,"Jio Store - Manikonda, Hyderabad","Jio Store, Plot No 1, 2, 7 & 8, Main Road, Opp Andhra Bank, Adj Post Office, Hyderabad 500089",Mon-Sun 10:00 AM-10:00 PM,17.402776,78.3774366,9082712406
256,"Resq Service Center - Prashanth Nagar, Hyderabad","Resq Service Center, Logic Solutions, Plot No. M10, 1st Floor, East Prashanth Nagar, Saleem Nagar, Hyderabad 500036, Telangana",Mon-Sun 09:30 AM-09:30 PM,17.378479,78.516458,0
257,"Jio Store - Ashok Hotel Chowk, Latur","Jio Store, Shop 22 & 23, Yashvantrao Chavan Shopping Complex, Ashok Hotel Chowk, Latur 413512",Mon-Sun 10:00 AM-10:00 PM,18.3982382,76.5706645,9082708700
258,"Jio Store - Yadav Complex, Civil Lines, Sagar","Jio Store, Yadav Complex ,10 Civil lines, Sagar 470001",Mon-Sun 10:00 AM-10:00 PM,23.8362288,78.762224,9082707414
259,"Jio Store - Gitanjali Complex, Katra Bazar, Sagar","Jio Store, Shop No 3, Ground Floor, Gitanjali Shopping Complex, Municipal House No 312 (Old No 227), Teen Batti, Katra Bazar, Sagar, Madhya Pradesh 470002",Mon-Sun 10:00 AM-10:00 PM,23.8380535,78.7402884,9082705070
260,"Reliance Digital - Nagole, Hyderabad","Reliance Digital, Survey No. 102/3/B , Nagole Village, Uppal Mandal, Ranga Reddy, Hyderabad 500035, Telangana",Mon-Sun 10:00 AM-10:00 PM,17.36706,78.5579,7780379546
261,"Reliance Digital - Malakpet, Hyderabad","Reliance Digital, Maram Satish Central, 16-10-27/105/1 to 7 and 106/1, Municipal Colony, Main Road, Malakpet, Hyderabad 500036, Telangana",Mon-Sun 10:00 AM-10:00 PM,17.373873,78.502309,9502051171
262,"Jio Store - Malakpet, Hyderabad","Jio Store, Adj Reliance Trends, Malkpet, Dilsukhnagar, Hyderabad 500036",Mon-Sun 10:00 AM-10:00 PM,17.372706,78.5079894,9082709740
263,"Reliance Digital - L B Nagar, Hyderabad","Reliance Digital, Saroornagar Village, L B Nagar, Opp. Bharat Petroleum, Hyderabad 500060, Telangana",Mon-Sun 11:00 AM-10:00 PM,17.368079,78.539642,9959555863
264,"Jio Store - Dilsukhnagar, Hyderabad","Jio Store, No. 1897, Chaitanyapuri, Dilsukhnagar, Hyderabad 500060, Telangana",Mon-Sun 10:00 AM-10:00 PM,17.3684019,78.532507,9082710657
265,"Jio Store - Dilsukhnagar, Hyderabad","Jio Store, H No 13 4 30, Main Road, Vikas Nagar, Dilsukhnagar, Hyderabad 500060",Mon-Sun 10:00 AM-10:00 PM,17.3685041,78.5284898,9082710849
266,"Resq Service Center - Dilshuk Nagar, Hyderabad","ResQ Service Center, Ground Floor to Third Floor, H No. 16-11-447/6, Moosarambagh, Dilshuk Nagar, Hyderabad 500036, Telangana",Mon-Sun 09:30 AM-09:30 PM,17.368986,78.521799,0
267,"Reliance Digital - Dilsukh Nagar, Hyderabad","Reliance Digital, Ground Floor to Third Floor, H No. 16-11-447/6, Moosarambagh, Dilsukh Nagar, Hyderabad 500036, Telangana",Mon-Sun 11:00 AM-10:00 PM,17.36899,78.5218,7032978394
268,"Jio Store - Panjagutta, Hyderabad","Jio Store, Ground FloorH. No: 6-3-457/1, Sai Krupa Lodge Building  Panjagutta Mar, Hyderabad Telangana",Mon-Sun 10:00 AM-10:00 PM,17.3823674,78.429656,9372757800
269,"Apple Authorised Service Provider - Reliance resQ -  Mantri Nagar, Latur","Apple Authorised Service Provider, Shop No. 7, Shri Niwas Arcade, Opp. Shani Mandir, Mantri Nagar, Latur 413512, Maharashtra",Mon-Sun 10:30 AM-06:30 PM,18.384751,76.568275,0
270,"Reliance Digital - Sabde Tower, Latur","Reliance Digital, Sabde Tower, No. 27, First & Second Floor, CTS No. 9906, Ausa Road, Latur 413512, Maharashtra",Mon-Sun 11:00 AM-10:00 PM,18.390354,76.561037,9823806837
271,"Resq Service Center - Latur, Latur","Resq Service Center,  Pranav Enterprises, House No. R2/1590, Survey No. 233/2, Sachidanand Nagar, Latur 413512, Maharashtra",Mon-Sun 09:30 AM-09:30 PM,18.4063623,76.5445569,0
272,"Reliance Digital - RK Puram, Hyderabad","Reliance Digital, Ground & First Floor, No 8&9/1/J5, Saroornagar Village, RK Puram, Kothapet, Hyderabad 500035, Telangana",Mon-Sun 10:00 AM-10:00 PM,17.3597587,78.5441136,7032953567
273,"Jio Store - Near Mira Complex, Ausa Road, Latur","Jio Store, Shop No 2 Meera Complex, Ausa Road, Latur 413512",Mon-Sun 10:00 AM-10:00 PM,18.3883024,76.5608914,9082705259
274,"Reliance Digital - Venu Gopal Complex, Hyderabad","Reliance Digital, Venu Gopal Complex, Plot No. 105/A and B, Ward No. 17, Block No. 1, Vinay Nagar Cooperative Housing Society, Saidabad, Hyderabad 500059, Telangana",Mon-Sun 11:00 AM-10:00 PM,17.352213,78.507457,9848962356
275,"Jio Store - Santosh Nagar Hyde, Hyderabad","Jio Store, HNo: 17 1 210/2/B/1, 1S Sadan X Rd, Santhoshnagar, Hyderabad 500059",Mon-Sun 10:00 AM-10:00 PM,17.3523407,78.506757,9082710027
276,"Jio Store - Sagar Road, Damoh","Jio Store, Civil ward No 08 Opp Panjab National Bank, Sagar road, Damoh 470661",Mon-Sun 10:00 AM-10:00 PM,23.83312,79.43304,9082708885
277,"Jio Store - Shah Ali Banda, Hyderabad","Jio Store, D No 23 2 614/1/618, Shalibanda, Hyderabad 500065",Mon-Sun 10:00 AM-10:00 PM,17.3551982,78.4733224,9082712414
278,"Reliance Digital - Attapur, Hyderabad","Reliance Digital, Plot Nos. 254 and 255, Attapur Village, Rajendranagar Municipality, Attapur 500048, Telangana",Mon-Sun 11:00 AM-10:00 PM,17.360942,78.427184,9700167676
279,"Jio Store - Grand Bazar, Santosh Nagar II, Hyderabad","Jio Store, Plot No 5, Maruthi Nagar Colony, Santosh Nagar, Saroornagar Mandal, Ranga Reddy Dist., Hyderabad 500059",Mon-Sun 10:00 AM-10:00 PM,17.345959292,78.508055147,9082709256
280,"Reliance Digital - Vanasthalipuram, Hyderabad","Reliance Digital, Plot No. 10, 12, 12S and 12N, Saheb Nagar, Khurd Village, Hayathnagar Mandal, Vanasthalipuram, Hyderabad 500070, Telangana",Mon-Sun 10:00 AM-10:00 PM,17.337568,78.572243,9908860572
281,"Reliance Digital - Suncity, Hyderabad","Reliance Digital, Survey No. A20, Gandamguda Village, Suncity Bandlaguda Jagir, Hyderabad 500075, Telangana",Mon-Sun 10:00 AM-10:00 PM,17.359503,78.387486,7022624170
282,"Resq Service Center - Saroornagar, Hyderabad","Resq Service Center, H No 13-10-43/1, New Gaddiannaram, Dilsukhnagar, Saroornagar, Hyderabad 500060, Telangana",Mon-Sun 09:30 AM-09:30 PM,17.335504,78.528229,0
283,"Jio Store - Vanasthalipuram, Hyderabad","Jio Store, H No:B 437 Phase Ii Opp Red Water Tank, Vanasthalipuram, Hyderabad 500070",Mon-Sun 10:00 AM-10:00 PM,17.3297516,78.5688514,9082710466
284,"Reliance Digital - Hasthinapuram, Hyderabad","Reliance Digital, No. 68, Saroornagar Mandal, L B Nagar Circle, Hasthinapuram, Hyderabad 500070, Telangana",Mon-Sun 11:00 AM-10:00 PM,17.328896,78.554008,9963029714
285,"Resq Service Center - Mehdipatnam, Hyderabad","Resq Service Center, Sreenivasa Electronics, 13-6-436/A/26 Laxmi Nagar Colony, Mehdipatnam, Hyderabad 500028, Telangana",Mon-Sun 09:30 AM-09:30 PM,17.3185231,78.5390647,0
286,"Jio Store - Shamshabad, Hyderabad","Jio Store, Shop N 11 129,N H 7 Main Road, Opp Bus Stand, Shamshabad Mandal,Ranga Reddy district, Hyderabad 501218",Mon-Sun 10:00 AM-10:00 PM,17.262043551,78.38822105,9082706496
287,"Jio Store - Vijayanagar, Basavakalyan","Jio Store, 26-228\5 vijaynagar (Huusur rode) Basavakalyan",Mon-Sun 10:00 AM-10:00 PM,17.86914,76.94883,9082702883
288,"Jio Store - Chitrakoot Road, Jagdalpur","Jio Store, Chitrakoot Road ,Jagdalpur 494001",Mon-Sun 10:00 AM-10:00 PM,19.0861,82.023,8928443486
289,"Jio Store - Habsiguda, Hyderabad","Jio Store, Ground floor Street No 8, Habsiguda Uppal Manda, Medchal Malkajgiri District, HYDERABAD",Mon-Sun 10:00 AM-10:00 PM,17.24249,78.32379,9372764664
290,"Jio Store - Galla mandi road Near Jaistambh, Basoda","Jio Store, Word No Galla Mandi Road Near Jai Stamb Ganj Basoda 464221",Mon-Sun 10:00 AM-10:00 PM,23.84817,77.93674,9082708858
291,"Resq Service Center - Jagdalpur, Jagdalpur","ResQ Service center, Speed Refrigeration, Collectorate Road, Jagdalpur, Bastar 494001, Chhattisgarh",Mon-Sun 09:30 AM-09:30 PM,19.082912,82.02332,0
292,"Jio Store - OPP.MARKET YARD, Ibrahimpatnam","Jio Store, H.NO.7/11/1 IBRAHIMPATNAM MAIN ROAD , OPP.MARKET YARD , RANGA REDDY DIST.TELANGANA Pin: 501506",Mon-Sun 10:00 AM-10:00 PM,17.1890906,78.6484318,9082706620
293,"Jio Store - Deolali Camp, Deolali Plaza, Nashik","Jio Store, Shop No G3, Ground Floor, Deolali Plaza, Opp Axis Bank Branch, Lam Road, Deolali Camp, Nasik 422401",Mon-Sun 10:00 AM-10:00 PM,21.0122675,75.5680872,9082713175
294,"Jio Store - Polan Peth, Jalgaon","Jio Store, Shop No. 19, Ramakant Shopping Complex, Old Highway, Polan Peth, Jalgaon 425001, Maharashtra",Mon-Sun 10:00 AM-10:00 PM,21.0122675,75.5680872,0
295,"Jio Store - Ganesh Colony Road, Unity Chamber, Jalgaon","Jio Store, Shop No. 11 Unity Chamber, Ganesh Colony Road, Near Khajamiya, Jalgaon 425001",Mon-Sun 10:00 AM-10:00 PM,21.0106066,75.5511794,9405055178
296,"Jio Store - Vyapar Vihar, Main Road, Bilaspur","Jio Store, Taha Complex Vyapar Vihar Main Road, Ground Floor, Bilaspur",Mon-Sun 10:00 AM-10:00 PM,22.04179,82.08277,8871693111
297,"Jio Store - NGOs Colony Near Bus stand, Hyderabad","Jio Store, Ground FloorH No 27-A & B, Sahebnagar Kalan Village, Hayathnagar Mandal Ranga Reddy Dist",Mon-Sun 10:00 AM-10:00 PM,17.191,78.3359,9372713670
298,"Jio Store - Palvancha, Kothagudem","Jio Store, Ground Floor H N o 14 -1-174, Sastry Rd  New Palvancha, Bhadraadri Kothagudem",Mon-Sun 10:00 AM-10:00 PM,17.601671667,80.702528333,9372763139
299,"Jio Store - Palwancha, Palwancha","Jio Store, Ground Floor House No 13-1-45, BCM Road Palwancha, Khamma District, Palwancha 507115",Mon-Sun 10:00 AM-10:00 PM,17.5978663,80.70412056,0
300,"Reliance Digital - City Mall, Mungeli Road","Reliance Digital, First Floor, Shop No. 21, 22 and 23, City Mall 36, Mangla Chowk, Mungeli Road, Bilaspur 495001, Chattisgarh",Mon-Sun 11:00 AM-10:00 PM,22.09399,82.1254316,8770594227
301,"Reliance Digital - Suryapet, Suryapet","Reliance Digital, Muncipal No. 1-2-270/101, Survey No. 259, Kuda Kuda Road, Suryapet 508213, Telangana",Mon-Sun 10:00 AM-10:00 PM,17.1549162,79.6247606,9182056480
302,"Jio Store - Mungeli Naka, Bilaspur","Jio Store, Shop No 4, Ground Floor, Plot No 89, Near Mungeli Naka Chowk, Bilaspur 495001",Mon-Sun 10:00 AM-10:00 PM,22.08908,82.1347073,9082709532
303,"Resq Service Center - Green Park Colony, Bilaspur","Resq Service Center, Cyber Services, 59 Rohini Vihar, Green Park Colony, Raipur Road, Bilaspur 495001, Chhattisgarh",Mon-Sun 09:30 AM-09:30 PM,22.075557,82.142492,0
304,"Jio Store - Suryapet, Suryapet","Jio Store, H No 1-4-249/160/A, Kudakuda Road   MG Road, Surapet Telangana",Mon-Sun 10:00 AM-10:00 PM,17.1461666,79.6223906,9082706651
305,"Reliance Digital - Shrikant Verma Marg, Bilaspur","Reliance Digital, Ground Floor, Mezzanine & First Floor, Shrikant Verma Marg, Beside Rama Magneto Mall, Juna Bilaspur 495001, Chhattisgarh",Mon-Sun 10:00 AM-10:00 PM,22.0705,82.1493,7024264324
306,"Jio Store - MG Road, Suryapet","Jio Store, D.No: 1-4-271 , Near: Shankar Villas Centre, M.G.Road Suryapet Nalgonda Dist - 508213",Mon-Sun 10:00 AM-10:00 PM,17.14293347,79.62114741,0
307,"Jio Store - Agrasen Chowk, Bilaspur","Jio Store, Shop No A 2, Ground Floor, Plot No 57 58/2/17, Ram Avtar Cloth Market, Agrasen Chowk, Bilaspur 495001",Mon-Sun 10:00 AM-10:00 PM,22.0769954,82.1523399,9082704576
308,"Jio Store - Rajiv Plaza, Old Bus Stand, Bilaspur","Jio Store, Lucky Complex, Beside Rajiv Plaza, Old Bus Stand, Bilaspur (CG) 495001",Mon-Sun 10:00 AM-10:00 PM,22.0747692,82.1598667,9082705459
309,"Jio Store - Sarkanda , Bilaspur","Jio Store, Ground Flr Shiva Hari Tower, Khasara No 18/9  24/2, Ashok Nagar Chowk Sarkanda, BILASPUR",Mon-Sun 10:00 AM-10:00 PM,22.097839,82.157365,9324805370
310,"Resq Service Center - Old VT Colony, Nalgonda","Resq Service Center, Sai Enterprises, No. 6-2-1182, PLOT No. 21 SS-155, Old VT Colony, Nalgonda 508001,Telangana",Mon-Sun 09:30 AM-09:30 PM,17.07223,79.25966,0
311,"Jio Store - R.P..Road, Nalgonda","Jio Store, D.No: 5-4-54/1/4 , Opp- HP Petrol bunk, R.P..Road Nalgonda. Pin: 508001",Mon-Sun 10:00 AM-10:00 PM,17.0673812,79.2560243,9082706636
312,"Jio Store - Murwara (Katn, Murwara(Katni)","Jio Store, Smt Saroj Gupta W/O Shri Vishwanath Gupta, H No 93, Vallabhbahi Patel Ward, Tehsil & Dist - Katni MP 483501",Mon-Sun 10:00 AM-10:00 PM,23.83607,80.39092,9082703594
313,"Jio Store - Bus Stand, Khammam","Jio Store, Door No. 8 1 157, Opp Bus Stand, Municipal Office Road, Khammam Town Khammam Dist, Telangana 507001",Mon-Sun 10:00 AM-10:00 PM,17.250925,80.142675,9082705007
314,"Reliance Digital - YST Mall, Khammam","Reliance Digital, Ground & First Floor, YST Mall, No. 11-7-90 & 91, NST Road, Revathi Talkies Area, Khammam 507001, Telangana",Mon-Sun 10:00 AM-10:00 PM,17.2518,80.1478,9000225700
315,"Jio Store - Municipal office, Khammam","Jio Store, H No 9 3 87, Station Road, Opp Municipal Office, Khammam 507001",Mon-Sun 10:00 AM-10:00 PM,17.2489966,80.1424237,9082704759
316,"Reliance Digital - City Mall, Katni","Reliance Digital, First Floor & Second Floor, City Mall, Barhi Road, Near Hotel Pankaj Palace, Katni 483501, Madhya Pradesh",Mon-Sun 11:00 AM-10:00 PM,23.837265,80.399645,9329142631
317,"Reliance Digital - RR Complex, Khammam","Reliance Digital, RR Complex, Vyra Road, No. 5-1-662, Khanapuram Haveli Gram Panchayat, Khammam 507001, Telangana",Mon-Sun 11:00 AM-10:00 PM,17.2516006,80.1655918,9182054232
318,"Reliance Digital - Prakasham Bazar Road, Nalgonda","Reliance Digital, Ground & First Floor, Metro Complex, No. 5-4-65 & 5-4-71, Prakasham Bazar Road, Nalgonda 508001, Telangana",Mon-Sun 10:00 AM-10:00 PM,17.0537392,79.268133,8008404234
319,"Jio Store - Khandwa Road, Khargone","Jio Store, Shop No 1 Ground floor Mahajan Store War Khandwa Road Group No.2 Block No.98 South Side From Bhandari Pump To Naka Khargone 451001",Mon-Sun 10:00 AM-10:00 PM,21.8265166,75.6242639,9082700924
320,"Resq Service Center - Khammam, Khammam","ResQ Service Center, Sri Arunaditya Enterprises, H. No. 5- 7-58, Ligh Quarters, Cheruvu Bazar, Khammam 507001,Telangana",Mon-Sun 09:30 AM-09:30 PM,17.210067,80.151353,0
321,"Jio Store - Sahu Sankul Shahu Naga, Beed","Jio Store, Shop no.3, Sahu Sankul, Shahu Nagar, Opp Beed Bus Stand Samrat Chowk, Beed - 431122",Mon-Sun 10:00 AM-10:00 PM,18.99,75.75,7020421851
322,"Jio Store - Indira Chowk, Tandur","Jio Store, Unit NO 3-1-5/1, Ground Floor, Indira Chowk, Tandur Ranga Reddy District, Rangareddy, 501141",Mon-Sun 10:00 AM-10:00 PM,17.2574623,77.5871264,9082700932
323,"Jio Store - Kaghaznagar, Sirpur Kaghaznagar","Jio Store, Ground Floor H No 1-1-31 & 1-1-31/A, Kothapet Kaghanagar, Adilabad District Telangana, Kaghaznagar 504296",Mon-Sun 10:00 AM-10:00 PM,17.2566,77.5866,9082702712
324,"Reliance Digital - Prozone Mall, Aurangabad","Reliance Digital, Prozone Mall, Ground Floor, API Corner, MIDC Chikalthana, Aurangabad 431001, Maharashtra",Mon-Sun 11:00 AM-10:00 PM,19.8776474,75.3718202,7387222567
325,"Jio Store - Achwal Ward, Bina","Jio Store, Achwal Word Near State Bank Of India Station Road Bina 470113",Mon-Sun 10:00 AM-10:00 PM,24.1807591,78.1993827,9082706087
326,"Jio Store - Connaught Place, Kailash Arcade, Aurangabad","Jio Store, Shop 07/20, Kailas Arcade, Cannaught Place, Opposite Quadrangle, Cidco, Aurangabad, 431003",Mon-Sun 10:00 AM-10:00 PM,19.8769818,75.3643645,9082712232
327,"Jio Store - TV Centre Road, Aurangabad","Jio Store, Shop No 1 & 2, Tehre Complex, Below Varad Hospital, Near Sambhaji Chowk, Tv Center Road, Aurangabad 431001",Mon-Sun 10:00 AM-10:00 PM,19.9025463,75.3535583,9082709320
328,"Resq Service Center - Jalna Road, Aurangabad","Resq Service Center, Suhani Enterprises, Shop No. 3, Rana Nagar, Jalna Road, Aurangabad 431005, Maharashtra",Mon-Sun 09:30 AM-09:30 PM,19.874881,75.3526672,0
329,"Reliance Digital - Garkheda, Aurangabad","Reliance Digital, Reliance Mall, Opp. Radha Krishna Mangal Karyalay, Garkheda 431001, Aurangabad",Mon-Sun 10:00 AM-10:00 PM,19.865861,75.350017,8600209552
330,"Jio Store - Jalna Road, Mahaveer Complex, Aurangabad","Jio Store, Shop No G7, Mahaveer Complex, Opp Akashwani, Jalna Road, Aurangabad 431001",Mon-Sun 08:00 AM-04:00 PM,19.8758908,75.3450701,9665000180
331,"Reliance Digital - Nisha Bafna Plaza, Aurangabad","Reliance Digital, Nisha Bafna Plaza, Near Buldhana Urban Bank, Jalna Road, Opp. Akashwani Kailash Nagar, Aurangabad 431001, Maharashta",Mon-Sun 10:00 AM-10:00 PM,19.876502,75.34236,7021139689
332,"Jio Store - Usmanpura, Aurangabad","Jio Store, Shop No 01, Jeet Complex, New Osmanpura, Aurangabad, 431005",Mon-Sun 10:00 AM-10:00 PM,19.8701561,75.3281776,9082712240
333,"Jio Store - Nano Mall, Garkheda, Aurangabad","Jio Store, Shop No 5, Nano Mall, Near Easy Day, Shahnoorwadi, Sulgirni Road, Aurangabad 431001",Mon-Sun 10:00 AM-10:00 PM,19.8701561,75.3281776,9082713474
334,"Jio Store - Tapadia Building, Nirala Bazar, Aurangabad","Jio Store, Shop No 110, Upper Ground, Tapadiya City Centre, Nirala Bazar, Aurangabad 431001",Mon-Sun 10:00 AM-10:00 PM,19.8701561,75.3281776,7385057110
335,"Reliance Digital - Phoenix Citadel Mall,Indore","Reliance Digital, Phoenix Citadel Mall, Sy. No. 248/1/1, Next to Mumbai Agra Bypass, Village Khajrana, Indore 452016, Madhya Pradesh",Mon-Sun 10:00 AM-10:00 PM,22.7466690011153,75.93573622550434,0
336,"Jio Store - MG Road, Chopda","Jio Store, Ground Floor C T S No 2503, M G Road Chopda, Nr Ambekar Chow, Sandip Medical Store, Taluka Chopda District Jalgaon, Chopda 425107",Mon-Sun 10:00 AM-10:00 PM,21.2445621,75.295149,9082702003
337,"Jio Store - Kanadiya Road, Indore","Jio Store, Ground FloorAshirwad Complex, Kanadiya Road Near Bengali Square, Indore",Mon-Sun 10:00 AM-10:00 PM,22.720875,75.9009128,9372764692
338,"Jio Store - Navneet Darshan, Old Palasia, Indore","Jio Store, Shop No Ug 5, Navneet Darshan Building, Plot No 4/6, Old Palasia, Indore 452001",Mon-Sun 10:00 AM-10:00 PM,22.7255212,75.8926617,9082710805
339,"Jio Store - Bhanwarkuan, Indore","Jio Store, Shop no. 7,UG 7 ranawat tradecenter,bhanwarker main road, plot no.1 indore",Mon-Sun 10:00 AM-10:00 PM,22.69332,75.86759,9082714334
340,"Jio Store - Sapna Sangeeta Road, Indore","Jio Store, Shop No Ug 3, Sapphire House, Plot No 9/1, Scheme No 31, Sneh Nagar Main Road, Sapna Sangeeta Main Road, Indore 452001",Mon-Sun 10:00 AM-10:00 PM,22.7023742,75.8713153,9082713517
341,"Jio Store - LIG Colony, Indore","Jio Store, Ground Floor, Building On Leasehold Property At Lig Colony, Near Water Head Tank, Lig Main Road, Indore 452001",Mon-Sun 10:00 AM-10:00 PM,22.734706667,75.889721667,8928443580
342,"Reliance Digital - A69 Plaza, Indore","Reliance Digital, A 69 Plaza, Scheme No. 31, Bhawarkuwn Main Road, Indore 452001, Madhya Pradesh",Mon-Sun 10:00 AM-10:00 PM,22.698828,75.864637,7007816195
343,"Reliance Digital - Malhar Mall, Indore","Reliance Digital, Plot No. 299-A, 304 U1 Ground Floor, Malhar Mall, AB Road, Indore 452010, Madhya Pradesh",Mon-Sun 10:00 AM-10:00 PM,22.744724,75.894797,9111935405
344,"Reliance Digital - Treasure Island, Indore","Reliance Digital, Third Floor, Treasure Island, MG Road, Indore 452001, Madhya Pradesh",Mon-Sun 11:00 AM-10:00 PM,22.721512,75.878736,8770897677
345,"Jio Store - Sai Plaza, Jawahar Chowk, Dewas","Jio Store, Ground Floor, Sai Plaza, Plot No 20 (New 26), Bahadur Shah Main Road, Jawahar Chowk, Dewas 455001",Mon-Sun 10:00 AM-10:00 PM,22.965218333,76.058353333,9082705201
346,"Jio Store - Bordiya House, Station Road, Ratlam","Jio Store, Shop No 4,Station Road, Ratlam 457001",Mon-Sun 10:00 AM-05:00 PM,22.965218333,76.058353333,9082707219
347,"Jio Store - Beside Chandralok Restrnt, Main Mkt, Narsimhapur","Jio Store, below punjab bank,jhira building,kandeli ,Narsinghpur 487001",Mon-Sun 10:00 AM-10:00 PM,22.965382,76.058305,9082706095
348,"Jio Store - Starlit Tower, YN Road, Indore","Jio Store, Shop No06 A & 06 B At Ground Floor, Starlit Tower, Plot No 29, Yashwant Niwas Road, Indore, Madhya Pradesh 452003",Mon-Sun 10:00 AM-10:00 PM,22.7238558,75.87423,9082712152
349,"Jio Store - Tanveer Sampuna Collection, Mhow","Jio Store, 111, central street, chota bazar, Mhow cantt., dist. Indore",Mon-Sun 10:00 AM-10:00 PM,22.56178,75.7644,9082703005
350,"Jio Store - Sayaji Plaza, Vijay Nagar, Indore","Jio Store, Shop No Ug 4, Sayaji Plaza, Plot No H1, Vijay Nagar Mr 10, Indore 452001",Mon-Sun 10:00 AM-10:00 PM,22.752119,75.889243,9082710796
351,"Jio Store - Shivam Mittal Property, AB Road, Rau , Indore","Jio Store, GF Plot no 646, Ward No 7 AB Rd, Rau Indore MP",Mon-Sun 10:00 AM-10:00 PM,22.637632,75.81184,9324805386
352,"Jio Store - Modi Tower, MTH Compound, Indore","Jio Store, Shop No G5, G6, G7A, Ground Floor, Modi Tower, Plot No 24/2, Mth Compound (Mg Road), Indore 452001",Mon-Sun 10:00 AM-10:00 PM,22.719165,75.8657957,9082713493
353,"Jio Store - Collectorate Road, Bairathi Colony, Indore","Jio Store, Shop No 4, Ground Floor, Om Mangalam Vihar, Bairathi Colony, Near Palsikar Square, Indore",Mon-Sun 10:00 AM-10:00 PM,22.7075436,75.8574492,9082705584
354,"Jio Store - Tarani Colony, AB Road, Dewas","Jio Store, Ground Floor, Plot No 2, Tarani Colony, AB Road, Dewas 455001",Mon-Sun 10:00 AM-10:00 PM,22.9612956,76.0452793,9082705439
355,"Reliance Digital - Rajendra Nagar, Indore","Reliance Digital, Ground First, Plot No. 221 IDA, Scheme No. 97, Rajendra Nagar, Near Dmart, Indore 452009, Madhya Pradesh",Mon-Sun 10:00 AM-10:00 PM,22.66634995,75.82253499,9303900865
356,"Jio Store - Jawahar Nagara, Indore","Jio Store, Shop No 5, Ground Floor, Jawahar Marg, Near Gurudwara Square, Indore 452007",Mon-Sun 10:00 AM-10:00 PM,22.7163669,75.8549052,9082705220
357,"Jio Store - Sail Sagar Chowraha, Tikamgarh","Jio Store, Ward No 19, Sail Sagar Chouraha, Civil line road, Tikamgarh, 472442",Mon-Sun 10:00 AM-10:00 PM,22.718417,75.85559,9098703071
358,"Jio Store - Roop Tower, Indore","Jio Store, Shop No G7 & G8, Ground Floor, Roop Tower,Vijay Syndicate Colony, Opp Dusshahara Maidan, Annapurna Main Road, Indore 452009",Mon-Sun 10:00 AM-10:00 PM,22.6947067,75.838657,9082712796
359,"Jio Store - Footikothi Main Road, Indore","Jio Store, Municipal Plot No 7, Dravid Nagar, Ranjeet Hanuman Road, Indore 452009",Mon-Sun 10:00 AM-10:00 PM,22.701295,75.8379225,9082706383
360,"Resq Service Center - Vijay Nagar, Indore","Resq Service Center, Krishna Enterprises, Hall No. 1 (Golden Gate Side), Ground Floor, AF-3, Scheme No. 54, Vijay Nagar, Indore 452010, Madhya Pradesh",Mon-Sun 09:30 AM-09:30 PM,22.766473,75.881923,0
361,"Jio Store - Miryalguda, Miryalguda","Jio Store, Unit NO Sy 839 Block No 18 H No18-636, Ground Floor, Hanumanpet Sagar Road, Miryalguda Nalgonda District, Miryalguda, 508207",Mon-Sun 10:00 AM-10:00 PM,16.8656329,79.5576631,9082700948
362,"Jio Store - Waidhan, Singrauli","Jio Store, c/o rajesh shukla,ward no.40,tali waidhan 464668",Mon-Sun 10:00 AM-10:00 PM,22.727269,75.833844,9082701344
363,"Jio Store - Kalani Nagar, Aerodrome, Indore","Jio Store, Sanskar House, Plot No 1 E,Kalani Nagar, Aerodrome Road, Indore 452005",Mon-Sun 10:00 AM-10:00 PM,22.7241915,75.8270201,9082706528
364,"Jio Store - Madhushree Icon, Osmanabad","Jio Store, Shop No. 1, Madhushree Icon, Opposite DR.Dambal Hospital, C.T.S No.7512, Barshi Naka, Osmanabad. 413501",Mon-Sun 10:00 AM-10:00 PM,18.187443,76.032157,9082706242
365,"Resq Service Center - Haldia, Haldia","Resq Service Center, Srinjan Enterprise, Plot No. 1112, No. R-151, Ward No. 1, Haldia to Tamluk Road, Sutahata, East Medinipur 721635, West Bengal",Mon-Sun 09:30 AM-09:30 PM,20.988,82.7525,0
366,"Jio Store - Sudarshan Complex, Pithampur","Jio Store, Sahu Steel Shop no 27-UGF Sudharshan Complex Sno 1 Pithampur 454775",Mon-Sun 10:00 AM-10:00 PM,22.60800288,75.684328,9082703023
367,"Resq Service Center - MSK Mill Road, Gulbarga","Resq Service Center, Mobile Network, Shop No. 11, Anand Desai Complex, Opposite Government ITI College, MSK Mill Road, Gulburga 585103, Karnataka",Mon-Sun 11:00 AM-07:30 PM,17.331939,76.8624705,0
368,"Jio Store - Super market, Gulbarga","Jio Store, 11, Super Market Gulbarga 585101",Mon-Sun 10:00 AM-10:00 PM,17.3388076,76.8375282,9082707801
369,"Jio Store - Sedam Road, Badepur, Gulbarga","Jio Store, Site No 2 907/51/1, Badepur Sedam Road Gulburga 585105",Mon-Sun 10:00 AM-10:00 PM,17.3270737,76.8530138,9082707409
370,"Apple Authorised Service Provider - Reliance resQ -  Gulbarga, Gulbarga","Apple Authorised Service Provider, Shop No. LG-34, Behind KBN Hospital Asian Mall, SP Office Road, Gulbarga 585105, Karnataka",Mon-Sun 10:30 AM-06:30 PM,17.326098,76.834741,0
371,"Reliance Digital - Asian Mall, Gulbarga","Reliance Digital, Asian Mall, 2nd Floor, Behind KBN Hospital, Aiwanshahi Road, Gulbarga 585102, Karnataka",Mon-Sun 10:00 AM-10:00 PM,17.325863,76.834563,7483036448
372,"Jio Store - Jawahar Marg, Shajapur","Jio Store, c/o rajesh shukla,ward no.40,tali waidhan 464668",Mon-Sun 10:00 AM-10:00 PM,23.4267508,76.2756085,9082700917
373,"Reliance Digital - Old Jewargi Road, Gulbarga","Reliance Digital, Ground Floor, First Floor & Second Floor, Plot No. 149, Old Jewargi Road, Gulbarga 585102, Karnataka",Mon-Sun 10:00 AM-10:00 PM,17.309855,76.818748,9880466011
374,"Jio Store - Pathak Plaza, Amalner","Jio Store, Kapadia Complex, Shop No.04, Subhash Chowk, Nr. Mahavir Ice Cream, Amalner - 425401",Mon-Sun 10:00 AM-10:00 PM,21.0447248,75.0639153,9527717146
375,"Jio Store - Chalisgaon, Chalisgaon","Jio Store, Shop No. 7, Caption Corner Complex, Opposite Bus Stand, Bhadgoan Road, Chalisgoan 424101",Mon-Sun 10:00 AM-10:00 PM,20.46442945,75.00942839,9082702047
376,"Resq Service Center - Mahabubnagar, Mahabubnagar","ResQ Service Center, SR Group Of Service, H No. 8-3-53/A/2, Mettugadda, Mahabubnagar 509001,Telangana",Mon-Sun 09:30 AM-09:30 PM,16.752168,78.012802,0
377,"Jio Store - MBC Shopping Complex, Mahbubnagar","Jio Store, MBC SHOPING COMPLEX ,SHOP NO 10, BESIDE HAJJI JAFEER PETROL BUNK, MAHABUB NAGAR, TELANGANA",Mon-Sun 10:00 AM-10:00 PM,16.746704,77.992413,9082702792
378,"Reliance Digital - Mahabubnagar, Mahabubnagar","Reliance Digital, Ground & First Floor, Near Clock Tower, Mahabubnagar 509001, Telangana",Mon-Sun 10:00 AM-10:00 PM,16.7470577,77.9878134,9848103013
379,"Jio Store - Bikramnagar, Jajpore Road","Jio Store, Old Fish Market Road, Bikram Nagar",Mon-Sun 10:00 AM-10:00 PM,18.857066,82.571962,9082703386
380,"Jio Store - Shahabad, Shahabad","Jio Store, House property No 17 to 20  & 17-121, Main Bazar Area Station Shahabad, Chitapura Taluk Gulbarga District",Mon-Sun 10:00 AM-10:00 PM,17.1248,76.94,9326940375
381,"Jio Store - Ainapur Maruti Road, Barsi","Jio Store, 2139/2585 Kedar Electricals, Ainapur maruti road, Near Hanuman Road. Barshi 413401",Mon-Sun 10:00 AM-10:00 PM,18.2322967,75.6967461,9082703218
382,"Jio Store - Bhavani Nagar, Kodad","Jio Store, Sy No 767 Plot No 15/A Block No 4 D.No.4-113/5/G, Ground Floor Bhavani Nagar, Kodada Town Nalgonda District, Nalgonda 508206",Mon-Sun 10:00 AM-10:00 PM,16.5984,79.59841,9082701574
383,"Jio Store - Deendayal Shopping Complex, Ujjain","Jio Store, Shop No B3, Ground Floor, Pandit Deen Dayal Upadhyay Shoping Complex, Indore Road, Ujjain 456010",Mon-Sun 10:00 AM-10:00 PM,23.1634706,75.7886023,9082704090
384,"Jio Store - Siddhi Vinayak Complex, Freeganj, Ujjain","Jio Store, Shop No 27, Ground Floor, Siddhi Vinayak Trade Centre, Plot No 28, Betal Marg, Near Shahid Park Square, Freeganj, Ujjain 456001",Mon-Sun 10:00 AM-10:00 PM,23.1793504,75.7912876,9082704033
385,"Jio Store - Ankpat Marg,, Teliwada Chouraha, Ujjain","Jio Store, Shop No 2, Ground Floor, Yadav Bhawan, House No 2, Ankpat Marg, Bada Teliwada Square, Ujjain 456001",Mon-Sun 10:00 AM-10:00 PM,23.1896096,75.7769206,9082703842
386,"Jio Store - Civil Lines, Lalitpur","Jio Store, shop no 2/plot no 1813, goodluck complex, Ground floor tuwanchauraha -Lalitpur, UP",Mon-Sun 10:00 AM-10:00 PM,24.69113953,78.41362147,9082701648
387,"Reliance Digital - The Palm Mall, Korba","Reliance Digital, Shop No. 120, Fisrt Floor, The Palm Mall, TP Nagar, Korba 495677, Chhattisgarh",Mon-Sun 11:00 AM-10:00 PM,22.354464,82.705031,8770898596
388,"Jio Store - Warwade Main Road, Shirpur","Jio Store, Shop No. 18, Gujarathi Complex Building, Survey No. 88/1, Warwade Main Road, Shirpur 425405, Maharashtra",Mon-Sun 10:00 AM-10:00 PM,21.3439,74.8829,7020216078
389,"Jio Store - Niharika Main Road, Korba","Jio Store, Niharika Main Road, Korba 495677, Chattisgarh",Mon-Sun 10:00 AM-10:00 PM,22.36,82.7216,9082703337
390,"Jio Store - Veer Sawarkar Road, Dhar","Jio Store, Shop No 2 Ground Floor Veer Swarkar Nagar Near LIC Of India Dhar 454775",Mon-Sun 10:00 AM-10:00 PM,22.59477467,75.30902142,9082701667
391,"Jio Store - CKB Arcade, Deopur, Dhule","Jio Store, Shop No 4&5,CKB Arcade, Deopur, Dhule 424002",Mon-Sun 10:00 AM-10:00 PM,20.9155742,74.7775403,9860319998
392,"Jio Store - Lalbaug  Radhika Market, Dhule","Jio Store, Shop No 1, Line No 2, Opp Axis Bank, Lalbaugh, Dhule 424001",Mon-Sun 10:00 AM-10:00 PM,20.9029418,74.7755603,7020400152
393,"Jio Store - Timmapur Circle, Gulbarga","Jio Store, Thimmapuri Circle To Jagar Circle Road, Station Road, Gulbarga 585102",Mon-Sun 10:00 AM-10:00 PM,17.19141,76.494,9082709387
394,"Jio Store - Piduguralla, Piduguralla","Jio Store, D.No: 577/A, Near SBI ATM Macherla Bus Stand, Piduguralla, Guntur, 522413",Mon-Sun 10:00 AM-10:00 PM,16.48151,79.88409,9082702487
395,"Jio Store - Kanna Chowk, Varun Plaza, Solapur","Jio Store, Shop No 2, Ghar No 163, Ravivar Peth, Varun Plaza, Kanna Chowk, Solapur 413005",Mon-Sun 10:00 AM-10:00 PM,17.677327,75.9165649,7020320062
396,"Resq Service Center - Solapur, Solapur","ResQ Service center, Ritika Sales & Services, 1348, Bhadrawati Peth, Solapur 413005, Maharashtra",Mon-Sun 09:30 AM-09:30 PM,17.672587,75.918966,0
397,"Reliance Digital - Piduguralla, Piduguralla","Reliance Digital, D No. 16-721/A, Survey No. 296/A, Main Road, Piduguralla, Gundur 522413, Andhra Pradesh",Mon-Sun 11:00 AM-10:00 PM,16.4788264,79.8938998,7331163705
398,"Apple Authorised Service Provider - Reliance resQ -  Solapur, Solapur","Apple Authorised Service Provider, Shop No. 2, Hotel Raj Heights Buildings, Mahesh Nagar, Shiwaji Chawk, Solapur 413002, Maharashtra",Mon-Sun 10:30 AM-06:30 PM,17.680244,75.898858,0
399,"Jio Store - Shivaji Chowk, Trupti Complex, Solapur","Jio Store, Shop No 1, Trupti Complex, Opp Bhagwat Cinema, Gold Finch Peth, Solapur 413007",Mon-Sun 10:00 AM-10:00 PM,17.6778197,75.8988768,9172263333
400,"Jio Store - Hotgi Road, United Arcade, Solapur","Jio Store, Shop No 3, Unitel Arcade, Hotgi Road, Solapur 413003",Mon-Sun 10:00 AM-10:00 PM,17.6422707,75.9157897,8999781393
401,"Jio Store - Bus Stand Road, Nuzvidu","Jio Store, D No. 7-176, Kothapeta, Bus Stand Road, Shivalayam Centre, Nuzvidu 521201, Andhra Pradesh",Mon-Sun 10:00 AM-10:00 PM,16.783668452,80.848390968,9082702525
402,"Jio Store - Bhawanipatna, Bhawanipatna","Jio Store, Ground Floor Khata No 1458/1522 Plot No 4527, Area AC 0.195 Dcml Mauza Bhawanipatna, Nazul PS/Tehsil Bhawanipatna District Kalahandi, Bhawanipatna 766001",Mon-Sun 10:00 AM-10:00 PM,19.907428,83.164156,9082700776
403,"Jio Store - Bijapur road, Kuber Chambers, Solapur","Jio Store, Shop No 4, Ground Floor, Kuber Chambers & Residency, Bijapur Road, Solapur - 413002",Mon-Sun 10:00 AM-10:00 PM,17.6352312,75.8979204,9545519519
404,"Jio Store - Station Road, Yadgir","Jio Store, Near tehsil office station rode mahveer complex yadgir",Mon-Sun 10:00 AM-10:00 PM,16.746923537,77.132000646,9082701566
405,"Jio Store - Near Rain Basera Hotel, Chirmiri","Jio Store, Near Rain Basera Hotel , Haldibadi Chirmiri Distt- Koriya 497451",Mon-Sun 10:00 AM-10:00 PM,23.1913,82.3521,9082703412
406,"Jio Store - Ward No. 19 Bada Bazaar Marg, Panna","Jio Store, Ward no.19,bada bazaar marg,beside digambar jain school,mohalla ranigunj,panna 488001",Mon-Sun 10:00 AM-10:00 PM,24.72132885,80.19100942,9082706149
407,"Jio Store - Semiliguda, Sunabeda","Jio Store, Khata No.-65/126, Plot No.-131/3299 Mauza-Semiliguda, PS-Samiliguda Tahasil-Patangi, Sunabeda 764036",Mon-Sun 10:00 AM-10:00 PM,18.71,82.85,9082701822
408,"Jio Store - KDR Nagar, Wanaparthy","Jio Store, Shop No. : 16-63, KDR Nagar, Opp R R Complex Wanaparthi, Pin: 509103",Mon-Sun 10:00 AM-10:00 PM,16.36334343,78.0625182,9082706663
409,"Jio Store - Ward No. 30 Jawahar Road, Chhatarpur","Jio Store, House No. 145/3 Ward No. 30 Jawahar Road Opp. LIC Office Beside Idea Collection Centre 471001",Mon-Sun 10:00 AM-10:00 PM,24.908602,79.582358,9082706123
410,"Jio Store - Sattenapalle, Sattenapalle","Jio Store, BHAVARI SETTY VARI STREET,SVR COMPLEX, GANDHI CHOWK , SATTHENAPALLI 522403",Mon-Sun 10:00 AM-10:00 PM,16.39645,80.1478,9082708198
411,"Reliance Digital - Bhavanipuram, Vijayawada","Reliance Digital, PTS No. 48/2, D No. 76-18-53, By-Pass Road, Bhavanipuram, Vijayawada 520012, Andhra Pradesh",Mon-Sun 10:00 AM-10:00 PM,16.5389,80.598123,9703038008
412,"Jio Store - Bhavanipuram, Vijaywada","Jio Store, H No 76 8 13, Opp Prk Building, Krambay Road, Bhavanipuram, Vijayawada 520012",Mon-Sun 10:00 AM-10:00 PM,16.5295166,80.5961079,9082711255
413,"Jio Store - Jawahar Nagar, Satna","Jio Store, Reliance Retail ltd.Jawahar nagar,sharda gramin Bank Satna.-485001",Mon-Sun 10:00 AM-10:00 PM,24.5618155,80.8227449,9082708914
414,"Jio Store - Arundalepeta,, Guntur","Jio Store, Door No 6 19 70, Arundalpet Main Road, Guntur 522007",Mon-Sun 10:00 AM-10:00 PM,16.5257488,80.6113659,9082706873
415,"Jio Store - Kothapeta, Vijaywada","Jio Store, D No 9 42 70, Kt Road, Kothapet, Vijayawada 520001",Mon-Sun 10:00 AM-10:00 PM,16.5257488,80.6113659,9082702529
416,"Jio Store - Satyanapuram, Vijaywada","Jio Store, D No 24 2 16, Near Inox Theater, Nrp Road, Vijayawada 520003",Mon-Sun 10:00 AM-10:00 PM,16.514477,80.6333344,9082711245
417,"Reliance Digital - Eluru Road,Vijayawada","Reliance Digital, Door No. 32 23 126/A, Block 13, Revenue Ward 13, Opp. BSNL Building, Chuttugunta, Eluru Road, Vijayawada 520004, Andhra Pradesh",Mon-Sun 10:00 AM-10:00 PM,16.516695,80.643755,8008579695  
418,"Jio Store - Jija Mata Chowk, Shri Rampur","Jio Store, Shop No.8 ShIvam Plaza, Jija Mata Chowk, Near State Bank Main Branch Ward No.4., Shrirampur, 413709",Mon-Sun 10:00 AM-10:00 PM,19.6153395,74.661205,9082708935
419,"Jio Store - Mogulrajpuram, Vijaywada","Jio Store, D No 32 13 55A, Siddartha College Road, Moghalrajapuram, Vijayawada 520010",Mon-Sun 10:00 AM-10:00 PM,16.5064901,80.6456889,9082707210
420,"Resq Service Center - Eluru, Eluru","Resq Service Center, Achyutha Enterprises, H No. 1-26, Near Transformer, III Cross, Sri Balajinagar Tangellamudi, Eluru Mandal, West Godavari 534005, Andhra Pradesh",Mon-Sun 09:30 AM-09:30 PM,16.7217259,81.0956818,0
421,"Reliance Digital - LEPL Centro Mall, Vijaywada","Reliance Digital, D No .40-1-146A, LEPL Centro Mall, M G Road, Labbipet, Vijayawada 520010, Andhra Pradesh",Mon-Sun 11:00 AM-10:00 PM,16.500084,80.645659,8008579695
422,"Reliance Digital - Enikepadu, Vijayawada","Reliance Digital, Ground & First Floor, R S No. 148/2, Enikepadu, Krishna District, Vijayawada 521108, Andra Pradesh",Mon-Sun 11:00 AM-10:00 PM,16.519865,80.694339,7032953609
423,"Reliance Digital - Central Plaza, Eluru","Reliance Digital, D No. 25-1-30, Shop No.201/208/301, Pathebad Main Road, RR Peta, Eluru 534002, Andhra Pradesh",Mon-Sun 11:00 AM-10:00 PM,16.713182,81.097136,8555843744
424,"Jio Store - NR Peta, Eluru , Eluru","Jio Store, 25 5 57,Shobha Complex, Opp DIG Bungalow Narsimha Rao Peth Eluru 534006",Mon-Sun 10:00 AM-10:00 PM,16.7097758,81.0930794,9082706881
425,"Jio Store - Vijaya Theatre Junction, Vijaywada","Jio Store, Door No 30 22/1 1,.Durga Agraharam, Karmikapuri, Eluru Road, Vijaya Theatre Junction, Main Road, Vijayawada 520002",Mon-Sun 10:00 AM-10:00 PM,16.7097758,81.0930794,9082707054
426,"Jio Store - National Plaza, Old Agra Road, Malegaon","Jio Store, CTS No 15172/2/2, National Plaza, Near New Bus Stand, Old Agra Road, Malegaon 423203",Mon-Sun 10:00 AM-10:00 PM,20.5543491,74.5333011,9371101985
427,"Jio Store - R R Peta, Eluru","Jio Store, No. 23 A-10-6, R R Peta, Near Ramamahal, Eluru 534002, Andhra Pradesh",Mon-Sun 10:00 AM-10:00 PM,16.7127306,81.1011703,9082706890
428,"Jio Store - Patamata, Vijaywada","Jio Store, R/O 57 8 21, Opp Mohandas Theater (Old), Bandar Road, Venkateswarapuram, Mg Road, Patamata, Vijayawada 520010",Mon-Sun 10:00 AM-10:00 PM,16.4947725,80.6617901,9082711290
429,"Reliance Digital - Patamata, Vijayawada","Reliance Digital, Ground Floor, No.73-1-10/1, 73-1-13, Opp. Durga Mahal, MG Road, Patamata, Vijayawada 520010, Andhra Pradesh",Mon-Sun 11:00 AM-10:00 PM,16.49356,80.6638,9390232425
430,"Reliance Digital - Tadepalli, Vijayawada","Reliance Digital, Ground Floor, Info Sight Towers, RS 78/2, Pathuru Cross Road, Opp. K L University Hostel, Tadepalli Villiage, Guntur 522501, Andhra Pradesh",Mon-Sun 11:00 AM-10:00 PM,16.47155,80.61591,8639381586
431,"Resq Service Center - Vijayawada, Vijaywada","Resq Service Center,  RS Technologies, Flat No. 6 74 12 3/1, New RTC Colony, Patamata Lanka, Vijayawada Krishna, Vijayawada 520010, Andhra Pradesh",Mon-Sun 09:30 AM-09:30 PM,16.4892252,80.6663043,0
432,"Jio Store - Tuljai Shopping Centre, Malegaon","Jio Store, Shop No. 5, Tuljai Shoping Centre, Satananaka, Satana Road, Soyegaon, Malegaon 423203",Mon-Sun 10:00 AM-10:00 PM,20.5529105,74.5168247,9359800365
433,"Resq Service Center - Tadepalle, Tadepalli","ResQ Service center, VJ Solutions, Ground Floor, 10-42, Kunchanapalli Village, Tadepalli Mandal, Guntur 522501, Andhra Pradesh",Mon-Sun 09:30 AM-09:30 PM,16.463639,80.614361,0
434,"Jio Store - Mangalagiri, Mangalagiri","Jio Store, D.No: 252-B Annapurna Deluxe Road Middi centre Main bazar Mangalagiri",Mon-Sun 10:00 AM-10:00 PM,16.4145885,80.5584724,9082702683
435,"Reliance Digital - Narasarao Pet, Narasarao Pet","Reliance Digital, 62PX + 22Q, Ameensaheb Palem, Arundelpet, Narasarao Pet 522601, Andhra Pradesh",Mon-Sun 10:00 AM-10:00 PM,16.2351,80.04767,9704912326
436,"Jio Store - Narasararaopet, Narasaraopet","Jio Store, OPP PUVVADA HOSPITAL , OLD PALBADU BUS STAND , NARASARAOPET 522601",Mon-Sun 10:00 AM-10:00 PM,16.2315,80.0423,9082708180
437,"Resq Service Center - Laxmi Narasimha Nagar, Guntur","Resq Service Center, Shalem Electronics, D No. 126-157, 1st Lane, Laxmi Narasimha Nagar, MG Inner Ring Road, West Guntur 522034, Andhra Pradesh",Mon-Sun 09:30 AM-09:30 PM,16.335018,80.435453,0
438,"Jio Store - Sunkulamma Mettu Colony, Gadwal","Jio Store, H.No:1-3-77 Sunkulamma Mettu Colony opposite to srinivas theater Gadwal, Pin: 509125",Mon-Sun 10:00 AM-10:00 PM,16.23605684,77.80169101,9082706716
439,"Jio Store - Club Pada Main Road, Balangir","Jio Store, Near Punjab National Bank,Club Pada,Main Road,Bolangir,Pin-767001, Odisha 767001",Mon-Sun 10:00 AM-10:00 PM,20.7,83.49,9082703394
440,"Reliance Digital - Lakshmipuram, Guntur","Reliance Digital, No. 5-87-17, Ward No. 3, Block 1, Laxmipuram, Guntur 522007, Andhra Pradesh",Mon-Sun 11:00 AM-10:00 PM,16.3092786,80.4316614,7680076946
441,"Reliance Digital - Balangir, Balangir","Reliance Digital, Ground Floor, First Floor & Second Floor, Plot No 473, Near Jayabharat Chhak Radharani Para, Balangir 767001, Odisha",Mon-Sun 10:00 AM-10:00 PM,20.705644,83.492069,7846884900
442,"Jio Store - Mansuri Building, Kopargaon","Jio Store, Mansuri Building, Near Kopargaon Police Station, Kopargaon, 423601",Mon-Sun 10:00 AM-10:00 PM,19.87968,74.479722,7020502020
443,"Jio Store - Central Plaza Naaz Centre, Guntur","Jio Store, Central Plaza, Naaz Centre, Guntur 522001",Mon-Sun 10:00 AM-10:00 PM,16.2976125,80.4459302,9082703970
444,"Jio Store - Y Junction, Chuttugunta, Guntur","Jio Store, Door No. 25-16-118/A, Sri Sai Villa Appartments, Shop No. C 2, Chuttugunta, Narasaraopet, Guntur, Andhra Pradesh",Mon-Sun 10:00 AM-10:00 PM,16.2901998,80.4252685,9082706954
445,"Reliance Digital - Kothapet, Guntur","Reliance Digital, TS No. 531, Kothapet, Guntur City & Corporation, Guntur 522201, Andhra Pradesh",Mon-Sun 10:00 AM-10:00 PM,16.2979727,80.4493445,7093897386
446,"Jio Store - Ratan Shree Hotel, Nagda","Jio Store, Ratan shree hotel P. No. 39 Jawahar Marg Nagda 456331",Mon-Sun 10:00 AM-10:00 PM,23.4560817,75.4156894,6082703015
447,"Jio Store - New Pimpalwadi Road, Shirdi","Jio Store, No 286 Shop No 4 Sai Nirman Complex, New Pimpalwadi Road, Shirdi RahtaTaluka, Ahmednagar Shirdi 414001",Mon-Sun 10:00 AM-10:00 PM,19.7643538,74.4777821,9309949595
448,"Jio Store - Main Road, Rajahmundry, Rajahmundry","Jio Store, D. No. 8 /24/ 151, Main Road, Rajahmundry Andhra Pradsesh 533104",Mon-Sun 10:00 AM-10:00 PM,16.99922575,81.77195201,9082709096
449,"Resq Service Center - Rajahmundry, Rajahmundry","Resq Service Center, Srinivasa Electronics, D No. 46 11 22/A, Madduri Vari Veedhi, Danavaipeta, Rajahmundry 533103, Andhra Pradesh",Mon-Sun 09:30 AM-09:30 PM,17.006948,81.781915,0
450,"Jio Store - Prakashnagar, RAJAHMUNDRY","Jio Store, BVR Complex, Prakash Nagar, Rajahmundry,Godavari (E) Dist 533101",Mon-Sun 10:00 AM-10:00 PM,17.0074881,81.7869651,9082703918
451,"Jio Store - KN Road, Tadepallegudam","Jio Store, K.N ROAD, BESIDE BATA SHOWROOM, TADEPALLIGUDEM 534101",Mon-Sun 10:00 AM-10:00 PM,16.8153418,81.5258615,9082701451
452,"Reliance Digital - Jubilee Road, Tadepalligudem","Reliance Digital, MN 2-16-3/1, No. 391, Jubilee Road, Tadepalligudem, West Godavari 534101, Andhra Pradesh",Mon-Sun 11:00 AM-10:00 PM,16.8114024,81.5265571,9391422929
453,"Reliance Digital - JN Road, Rajahmundry","Reliance Digital, No. 86-1-109, Plot No. 36 R S 291 / 292,  JN Road, Rajahmundry 533101, Andhra Pradesh",Mon-Sun 11:00 AM-10:00 PM,17.007056,81.798388,7337328006
454,"Reliance Digital - Station Road, Rajahmundry","Reliance Digital, Multi Functional Complex, Rajhamundry Station, Alcot Gardens, Opposite Saibaba Temple, Rajahamundry 533101, Andhra Pradesh",Mon-Sun 11:00 AM-10:00 PM,16.986683874,81.782282997,9701501802
455,"Resq Service Center - Rewa, Rewa","ResQ Service center, Care Infotech, Behind John Tower, Near College Chauraha, Rewa 486001,  Madhya Pradesh",Mon-Sun 09:30 AM-09:30 PM,24.5421212,81.2962351,0
456,"Reliance Digital - Allahabad Road, Rewa","Reliance Digital, GRG Tower, Urrhat, Near Flavours Restaurant, Allahabad Road, Rewa 486001, Madhya Pradesh",Mon-Sun 10:00 AM-10:00 PM,24.5438452,81.3060716,9329142631
457,"Jio Store - GuruKrip Complex, Guna","Jio Store, GuruKrip Complex, Near Bada Pul, AB Road Guna - 473001",Mon-Sun 10:00 AM-10:00 PM,24.5472319,81.3034641,9082708898
458,"Jio Store - Palnadu Road, Vinukonda","Jio Store, OPP JUNIOR COLLAGE ,PALNADU ROAD , VENUKONDA. 522647",Mon-Sun 10:00 AM-10:00 PM,16.05,79.73,9082706654
459,"Jio Store - Mukut Complex, Raigarh","Jio Store, mukut Complex,Shahid Hemu kalani Chowk Raigarh 496551",Mon-Sun 10:00 AM-10:00 PM,21.8922,83.4012,9082708280
460,"Reliance Digital - Gudivada, Gudivada","Reliance Digital, Premises No. 11/224 2, 3, Next to ICICI Bank, Eluru Road, Gudivada 521301, Andhra Pradesh",Mon-Sun 11:00 AM-10:00 PM,16.438136,80.992294,7416871655
461,"Jio Store - Gudivada, Gudivada","Jio Store, AGK ROAD, SRI BRAHMA THEATER, GUDIWADA 521301",Mon-Sun 10:00 AM-10:00 PM,16.43211,80.99172,9082702505
462,"Jio Store - Pandharpur, Phandarpur","Jio Store, Shop 1 1006 A Fattepukar Building Gongade Galli Nath Chowk Pandharpur",Mon-Sun 10:00 AM-10:00 PM,17.678961,75.336662,9082714288
463,"Jio Store - Prakasham Road, Tenali","Jio Store, do:no:7-5-56, opp ASN collage , prakasam Road ,Gangamma peta tenali. 522201",Mon-Sun 10:00 AM-10:00 PM,16.24,80.64,9082701781
464,"Jio Store - Chilakaluripet, Chilakalurupet","Jio Store, D.No: 19-281/2 Ayyappa Appartment Kalamandir centre Chirala Road",Mon-Sun 10:00 AM-10:00 PM,16.0854371,80.1704124,9082702774
465,"Jio Store - Rayagadanagar, Rayagada (Raigarh)","Jio Store, At-Balaram Bhawan,Station Road, Opposite of Old Gate,Po/Ps/Dist-Rayagada,Pin-765001",Mon-Sun 10:00 AM-10:00 PM,19.17,83.41,9082701854
466,"Resq Service Center - Raichur, Raichur","ResQ Service center, Aamina Telecommunication, 10-4-94, Gunj Road, Makthalpet, Raichur 584101, Karnataka",Mon-Sun 09:30 AM-09:30 PM,16.2,77.36,0
467,"Reliance Digital - Raichur Station Road, Raichur","Reliance Digital, Ground Floor & First Floor, No. 32, Municipal No. 11046 & No. 33, 11047 PID No. 4-1-24-79, Station Road, Raichur 584101, Karnataka",Mon-Sun 10:00 AM-10:00 PM,16.195236,77.342905,7019988332
468,"Jio Store - Raichur, Raichur","Jio Store, Narsangouda M Nagappa Shop No 1-1-244,MNG Complex,Station Road Raichur-584101",Mon-Sun 07:15 AM-05:00 PM,16.19276078,77.34176534,9082702297
469,"Jio Store - Tanuku, Tanuku","Jio Store, D.NO:22-66, OLD WARD NO:3, NEAR KRISHNA REDDY HOSPITAL , RP ROAD TANUKU. 534211",Mon-Sun 10:00 AM-10:00 PM,16.75,81.67,9082701437
470,"Resq Service Center - Jhansi, Jhansi","ResQ Service center, Care King, 19/A2, Behind Jail, Civil Lines, Jhansi 284001, Uttar Pradesh",Mon-Sun 09:30 AM-09:30 PM,25.26286,78.34188,0
471,"Jio Store - Bargarh, Bargarh","Jio Store, Dharanidhara Sahoo,VSS Nagar, Ward No-10,NH-6,Ps-Bargarh,Dist-Bargarh,Pin-768028, Odisha 768028",Mon-Sun 10:00 AM-10:00 PM,21.34,83.62,9082703560
472,"Jio Store - Diamond Plaza, Manmad","Jio Store, Diamond Plaza CTS No-823A,Nr-Bhagat Singh Garden,Nandgaon,Manmad",Mon-Sun 10:00 AM-10:00 PM,20.1506,74.2615,9082702808
473,"Jio Store - Jayalaxmi Complex, Samalkota","Jio Store, GROUND FLOOR H NO 18-1-65/1 SHOP NO 3, JAYALAXMI COMPLEX, PEDDAPURAM ROAD SAMLKOTA",Mon-Sun 10:00 AM-10:00 PM,17.0565,82.16576,9372763087
474,"Digital Xpress Mini - Samalkota, Samalkota","Reliance Digital Xpress Mini, D.No. 11-2-68,Jagammagaripeta,Opp Vighenswara Theatre, Peddapuram Road, Samarlkota",Mon-Sun 10:00 AM-10:00 PM,17.05,82.16,0
475,"Jio Store - Naharpura Square, Ratlam","Jio Store, Municipal House No 4,Biharilal Marg, Naharpura Chauraha, Ratlam 457001",Mon-Sun 10:00 AM-10:00 PM,23.3254031,75.0377912,9082706351
476,"Jio Store - Akluj(CT), Akluj","Jio Store, Anand Lodge, Sadubhau Chowk, Nr Bank of Baroda Akluj, Taluka Malshiras, Dist. Solapur Akjuj - 413101",Mon-Sun 10:00 AM-10:00 PM,17.888204,75.0192239,8101021008
477,"Jio Store - Pardeshipura Nagar, Nandurbar","Jio Store, Survey No 513/1/ Plot No.577 B/Shop No.1, Pardeshipura, Nr. Nagar Parishad Road, Nandurbar, 425412",Mon-Sun 10:00 AM-10:00 PM,21.36,74.24,9082708928
478,"Reliance Digital - Coastal City Center, Bhimavaram","Reliance Digital, 172/5, Coastal City Centre Mall, Undi Road, West Godavari, Bhimavaram 534202, Andhra Pradesh",Mon-Sun 11:00 AM-10:00 PM,16.546838,81.517304,8374077488
479,"Jio Store - Pitapuram, Pithapuram","Jio Store, DO.NO:7-2-44b , OPP ANDHRA BANK , MAIN ROAD , NEAR RAMALAYAM. 533450",Mon-Sun 10:00 AM-10:00 PM,17.11,82.25,9082702210
480,"Jio Store - PP Road, Bhimavaram","Jio Store, NEAR ANNAPURNA THEATER , DO.NO:16/2-49/1,PP ROAD BHIMAVARAM 534201",Mon-Sun 10:00 AM-10:00 PM,16.54,81.52,9082701846
481,"Resq Service Center - Bhimavaram, Bhimavaram","Resq Service Center, Devi Electronics, 7-7-22/5, Ground Floor, BH Lakshmipathi Raju Street, Narasayya Agraharam, Bhimavaram, West Godavari 534201, Andhra Pradesh",Mon-Sun 09:30 AM-09:30 PM,16.5479185,81.5343462,0
